source_rank,city,state,country,region,latitude,longitude,numbeo_quality_of_life_index,purchasing_power_index,safety_index,healthcare_index,cost_of_living_index,property_price_to_income_ratio,traffic_commute_index,pollution_index,climate_index,is_required_city,source_period,source_url,source_note
1.0,The Hague (Den Haag),,Netherlands,Europe,52.0667,4.3167,234.5,168.5,78.9,82.6,74.1,6.1,20.5,17.9,90.6,False,current_rolling,https://www.numbeo.com/quality-of-life/rankings_current.jsp,dataset_2_numbeo_current_quality_of_life_rankings; sourced from Numbeo current rolling city rankings page; not automated scraper in project code
2.0,Eindhoven,,Netherlands,Europe,51.4333,5.5,219.6,154.9,77.6,75.4,70.4,7.2,23.5,20.7,85.4,False,current_rolling,https://www.numbeo.com/quality-of-life/rankings_current.jsp,dataset_2_numbeo_current_quality_of_life_rankings; sourced from Numbeo current rolling city rankings page; not automated scraper in project code
3.0,Rotterdam,,Netherlands,Europe,51.9167,4.4833,218.9,155.3,70.4,79.8,73.5,5.8,21.3,23.8,87.9,False,current_rolling,https://www.numbeo.com/quality-of-life/rankings_current.jsp,dataset_2_numbeo_current_quality_of_life_rankings; sourced from Numbeo current rolling city rankings page; not automated scraper in project code
4.0,Stuttgart,,Germany,Europe,48.7667,9.1833,216.9,191.8,66.0,76.6,69.5,6.5,25.2,36.8,81.1,False,current_rolling,https://www.numbeo.com/quality-of-life/rankings_current.jsp,dataset_2_numbeo_current_quality_of_life_rankings; sourced from Numbeo current rolling city rankings page; not automated scraper in project code
5.0,Utrecht,,Netherlands,Europe,52.1,5.1167,214.4,159.7,73.5,79.2,76.1,7.4,24.7,29.4,87.2,False,current_rolling,https://www.numbeo.com/quality-of-life/rankings_current.jsp,dataset_2_numbeo_current_quality_of_life_rankings; sourced from Numbeo current rolling city rankings page; not automated scraper in project code
6.0,Luxembourg,,Luxembourg,Europe,49.6116,6.1319,214.0,167.8,71.5,72.4,79.1,10.1,25.9,21.6,82.6,False,current_rolling,https://www.numbeo.com/quality-of-life/rankings_current.jsp,dataset_2_numbeo_current_quality_of_life_rankings; sourced from Numbeo current rolling city rankings page; not automated scraper in project code
7.0,Stavanger,,Norway,Europe,58.9667,5.75,213.8,162.0,75.1,71.8,89.6,5.6,32.3,19.8,80.0,False,current_rolling,https://www.numbeo.com/quality-of-life/rankings_current.jsp,dataset_2_numbeo_current_quality_of_life_rankings; sourced from Numbeo current rolling city rankings page; not automated scraper in project code
8.0,Gothenburg,,Sweden,Europe,57.7089,11.9746,213.5,177.5,54.2,69.9,66.5,6.6,24.3,19.5,77.5,False,current_rolling,https://www.numbeo.com/quality-of-life/rankings_current.jsp,dataset_2_numbeo_current_quality_of_life_rankings; sourced from Numbeo current rolling city rankings page; not automated scraper in project code
9.0,Bergen,,Norway,Europe,60.3833,5.3333,212.6,152.6,75.9,75.2,93.3,6.6,26.2,20.6,78.8,False,current_rolling,https://www.numbeo.com/quality-of-life/rankings_current.jsp,dataset_2_numbeo_current_quality_of_life_rankings; sourced from Numbeo current rolling city rankings page; not automated scraper in project code
10.0,Copenhagen,,Denmark,Europe,55.6761,12.5683,211.8,156.9,74.1,76.5,83.7,9.7,26.9,22.5,83.7,False,current_rolling,https://www.numbeo.com/quality-of-life/rankings_current.jsp,dataset_2_numbeo_current_quality_of_life_rankings; sourced from Numbeo current rolling city rankings page; not automated scraper in project code
11.0,Gent,,Belgium,Europe,51.0333,3.7,210.5,152.9,75.0,80.2,71.4,6.2,25.2,35.8,88.7,False,current_rolling,https://www.numbeo.com/quality-of-life/rankings_current.jsp,dataset_2_numbeo_current_quality_of_life_rankings; sourced from Numbeo current rolling city rankings page; not automated scraper in project code
12.0,Nuremberg,,Germany,Europe,49.45,11.0833,210.3,176.1,66.3,64.0,68.6,7.1,25.3,27.2,77.5,False,current_rolling,https://www.numbeo.com/quality-of-life/rankings_current.jsp,dataset_2_numbeo_current_quality_of_life_rankings; sourced from Numbeo current rolling city rankings page; not automated scraper in project code
13.0,Amsterdam,,Netherlands,Europe,52.3833,4.9,210.0,156.6,69.9,75.5,81.1,9.2,23.4,27.0,87.5,True,current_rolling,https://www.numbeo.com/quality-of-life/rankings_current.jsp,dataset_2_numbeo_current_quality_of_life_rankings; sourced from Numbeo current rolling city rankings page; not automated scraper in project code
14.0,Groningen,,Netherlands,Europe,53.2167,6.5667,209.8,132.0,76.3,73.0,69.4,7.7,20.4,20.1,83.5,False,current_rolling,https://www.numbeo.com/quality-of-life/rankings_current.jsp,dataset_2_numbeo_current_quality_of_life_rankings; sourced from Numbeo current rolling city rankings page; not automated scraper in project code
15.0,Frankfurt,,Germany,Europe,50.1167,8.6833,208.8,175.9,54.5,76.2,71.2,7.2,23.5,32.3,84.7,False,current_rolling,https://www.numbeo.com/quality-of-life/rankings_current.jsp,dataset_2_numbeo_current_quality_of_life_rankings; sourced from Numbeo current rolling city rankings page; not automated scraper in project code
16.0,Munich,,Germany,Europe,48.1351,11.582,208.4,159.9,78.3,76.9,77.1,12.2,28.7,24.7,76.0,True,current_rolling,https://www.numbeo.com/quality-of-life/rankings_current.jsp,dataset_2_numbeo_current_quality_of_life_rankings; sourced from Numbeo current rolling city rankings page; not automated scraper in project code
17.0,Bern,,Switzerland,Europe,46.95,7.4667,208.3,196.5,73.5,66.9,107.5,9.4,38.8,29.5,76.0,False,current_rolling,https://www.numbeo.com/quality-of-life/rankings_current.jsp,dataset_2_numbeo_current_quality_of_life_rankings; sourced from Numbeo current rolling city rankings page; not automated scraper in project code
18.0,Zurich,,Switzerland,Europe,47.3667,8.5167,207.5,184.1,76.6,70.0,122.5,12.1,37.0,25.2,81.5,False,current_rolling,https://www.numbeo.com/quality-of-life/rankings_current.jsp,dataset_2_numbeo_current_quality_of_life_rankings; sourced from Numbeo current rolling city rankings page; not automated scraper in project code
19.0,Geneva,,Switzerland,Europe,46.2044,6.1432,207.3,182.8,70.5,69.9,115.0,12.7,32.6,24.2,82.6,False,current_rolling,https://www.numbeo.com/quality-of-life/rankings_current.jsp,dataset_2_numbeo_current_quality_of_life_rankings; sourced from Numbeo current rolling city rankings page; not automated scraper in project code
20.0,Trondheim,,Norway,Europe,63.4167,10.4167,206.8,147.5,78.5,75.8,90.4,6.4,31.0,19.7,66.7,False,current_rolling,https://www.numbeo.com/quality-of-life/rankings_current.jsp,dataset_2_numbeo_current_quality_of_life_rankings; sourced from Numbeo current rolling city rankings page; not automated scraper in project code
21.0,Basel,,Switzerland,Europe,47.55,7.6,206.6,202.6,68.0,69.3,114.5,10.7,37.7,34.1,82.8,False,current_rolling,https://www.numbeo.com/quality-of-life/rankings_current.jsp,dataset_2_numbeo_current_quality_of_life_rankings; sourced from Numbeo current rolling city rankings page; not automated scraper in project code
22.0,Lausanne,,Switzerland,Europe,46.5333,6.65,205.7,188.4,71.0,70.3,110.9,12.1,33.3,26.8,73.3,False,current_rolling,https://www.numbeo.com/quality-of-life/rankings_current.jsp,dataset_2_numbeo_current_quality_of_life_rankings; sourced from Numbeo current rolling city rankings page; not automated scraper in project code
23.0,Dusseldorf,,Germany,Europe,51.2167,6.7833,204.0,158.9,65.9,72.6,71.5,9.6,26.9,30.3,86.4,False,current_rolling,https://www.numbeo.com/quality-of-life/rankings_current.jsp,dataset_2_numbeo_current_quality_of_life_rankings; sourced from Numbeo current rolling city rankings page; not automated scraper in project code
24.0,Gold Coast,,Australia,Oceania,-27.9833,153.3667,203.0,150.5,52.6,76.4,73.6,7.2,30.1,25.5,97.7,False,current_rolling,https://www.numbeo.com/quality-of-life/rankings_current.jsp,dataset_2_numbeo_current_quality_of_life_rankings; sourced from Numbeo current rolling city rankings page; not automated scraper in project code
25.0,Canberra,,Australia,Oceania,-35.3333,149.1667,202.9,158.8,72.0,69.5,75.3,9.3,37.0,25.1,82.7,False,current_rolling,https://www.numbeo.com/quality-of-life/rankings_current.jsp,dataset_2_numbeo_current_quality_of_life_rankings; sourced from Numbeo current rolling city rankings page; not automated scraper in project code
26.0,Hobart,,Australia,Oceania,-42.9167,147.3333,202.5,163.5,65.7,64.2,73.1,6.5,37.7,28.5,90.6,False,current_rolling,https://www.numbeo.com/quality-of-life/rankings_current.jsp,dataset_2_numbeo_current_quality_of_life_rankings; sourced from Numbeo current rolling city rankings page; not automated scraper in project code
27.0,Liverpool,,United Kingdom,Europe,53.3833,-3.0,202.3,149.0,52.6,79.1,66.2,4.8,27.8,30.4,90.9,False,current_rolling,https://www.numbeo.com/quality-of-life/rankings_current.jsp,dataset_2_numbeo_current_quality_of_life_rankings; sourced from Numbeo current rolling city rankings page; not automated scraper in project code
28.0,Vienna,,Austria,Europe,48.2082,16.3738,200.9,131.0,70.5,79.7,75.1,16.3,23.0,15.8,81.8,False,current_rolling,https://www.numbeo.com/quality-of-life/rankings_current.jsp,dataset_2_numbeo_current_quality_of_life_rankings; sourced from Numbeo current rolling city rankings page; not automated scraper in project code
29.0,Adelaide,,Australia,Oceania,-34.9333,138.6,200.6,148.8,67.0,72.4,73.4,9.9,38.2,25.1,95.0,False,current_rolling,https://www.numbeo.com/quality-of-life/rankings_current.jsp,dataset_2_numbeo_current_quality_of_life_rankings; sourced from Numbeo current rolling city rankings page; not automated scraper in project code
30.0,Helsinki,,Finland,Europe,60.1667,24.9667,200.5,124.4,74.8,80.1,73.6,11.6,24.6,12.5,62.8,False,current_rolling,https://www.numbeo.com/quality-of-life/rankings_current.jsp,dataset_2_numbeo_current_quality_of_life_rankings; sourced from Numbeo current rolling city rankings page; not automated scraper in project code
31.0,Edinburgh,,United Kingdom,Europe,55.95,-3.2,200.1,135.3,69.5,75.9,72.1,8.0,26.6,28.0,84.0,True,current_rolling,https://www.numbeo.com/quality-of-life/rankings_current.jsp,dataset_2_numbeo_current_quality_of_life_rankings; sourced from Numbeo current rolling city rankings page; not automated scraper in project code
32.0,Perth,,Australia,Oceania,-31.9333,115.8333,199.2,158.1,57.8,72.0,73.1,7.0,40.9,28.2,95.7,False,current_rolling,https://www.numbeo.com/quality-of-life/rankings_current.jsp,dataset_2_numbeo_current_quality_of_life_rankings; sourced from Numbeo current rolling city rankings page; not automated scraper in project code
33.0,Hamburg,,Germany,Europe,53.55,10.0,198.3,154.6,59.2,74.3,71.3,9.8,30.5,27.3,82.8,False,current_rolling,https://www.numbeo.com/quality-of-life/rankings_current.jsp,dataset_2_numbeo_current_quality_of_life_rankings; sourced from Numbeo current rolling city rankings page; not automated scraper in project code
34.0,Cork,,Ireland,Europe,51.9,-8.4667,198.3,151.9,62.9,55.9,72.1,4.7,34.1,25.8,89.8,False,current_rolling,https://www.numbeo.com/quality-of-life/rankings_current.jsp,dataset_2_numbeo_current_quality_of_life_rankings; sourced from Numbeo current rolling city rankings page; not automated scraper in project code
35.0,Reykjavik,,Iceland,Europe,64.15,-21.95,198.2,121.3,75.4,69.6,100.2,8.1,20.5,15.6,68.8,False,current_rolling,https://www.numbeo.com/quality-of-life/rankings_current.jsp,dataset_2_numbeo_current_quality_of_life_rankings; sourced from Numbeo current rolling city rankings page; not automated scraper in project code
36.0,Ottawa,,Canada,North America,45.4167,-75.7,197.9,165.6,68.8,68.2,61.4,5.9,33.1,24.3,44.5,False,current_rolling,https://www.numbeo.com/quality-of-life/rankings_current.jsp,dataset_2_numbeo_current_quality_of_life_rankings; sourced from Numbeo current rolling city rankings page; not automated scraper in project code
37.0,Brisbane,,Australia,Oceania,-27.5,153.0167,197.8,160.5,61.8,71.2,69.3,8.2,42.7,32.9,98.1,False,current_rolling,https://www.numbeo.com/quality-of-life/rankings_current.jsp,dataset_2_numbeo_current_quality_of_life_rankings; sourced from Numbeo current rolling city rankings page; not automated scraper in project code
38.0,Glasgow,,United Kingdom,Europe,55.85,-4.2667,197.6,146.7,55.1,78.4,67.9,5.0,28.3,33.4,84.8,False,current_rolling,https://www.numbeo.com/quality-of-life/rankings_current.jsp,dataset_2_numbeo_current_quality_of_life_rankings; sourced from Numbeo current rolling city rankings page; not automated scraper in project code
39.0,Christchurch,,New Zealand,Oceania,-43.5833,172.6,197.2,133.5,55.3,70.2,59.4,6.9,23.4,25.5,88.8,False,current_rolling,https://www.numbeo.com/quality-of-life/rankings_current.jsp,dataset_2_numbeo_current_quality_of_life_rankings; sourced from Numbeo current rolling city rankings page; not automated scraper in project code
40.0,Newcastle upon Tyne,,United Kingdom,Europe,54.9783,-1.6178,196.7,157.3,60.7,77.2,66.8,8.2,33.1,36.9,85.7,False,current_rolling,https://www.numbeo.com/quality-of-life/rankings_current.jsp,dataset_2_numbeo_current_quality_of_life_rankings; sourced from Numbeo current rolling city rankings page; not automated scraper in project code
41.0,Tucson,AZ,United States,North America,32.2167,-110.9667,196.6,178.5,45.8,61.3,62.3,3.7,33.1,29.9,72.7,False,current_rolling,https://www.numbeo.com/quality-of-life/rankings_current.jsp,dataset_2_numbeo_current_quality_of_life_rankings; sourced from Numbeo current rolling city rankings page; not automated scraper in project code
42.0,Graz,,Austria,Europe,47.0833,15.3667,196.1,145.0,72.5,77.1,69.6,7.3,28.6,37.6,73.9,False,current_rolling,https://www.numbeo.com/quality-of-life/rankings_current.jsp,dataset_2_numbeo_current_quality_of_life_rankings; sourced from Numbeo current rolling city rankings page; not automated scraper in project code
43.0,Villach,,Austria,Europe,46.6167,13.85,196.0,131.5,71.4,69.3,65.0,7.5,16.0,34.9,75.9,False,current_rolling,https://www.numbeo.com/quality-of-life/rankings_current.jsp,dataset_2_numbeo_current_quality_of_life_rankings; sourced from Numbeo current rolling city rankings page; not automated scraper in project code
44.0,Wellington,,New Zealand,Oceania,-41.2833,174.7667,195.3,136.5,66.5,64.1,66.0,8.3,38.7,24.8,97.7,False,current_rolling,https://www.numbeo.com/quality-of-life/rankings_current.jsp,dataset_2_numbeo_current_quality_of_life_rankings; sourced from Numbeo current rolling city rankings page; not automated scraper in project code
45.0,Plzen,,Czech Republic,Europe,49.7384,13.3736,195.0,123.4,69.8,76.1,50.4,10.9,21.6,30.0,81.4,False,current_rolling,https://www.numbeo.com/quality-of-life/rankings_current.jsp,dataset_2_numbeo_current_quality_of_life_rankings; sourced from Numbeo current rolling city rankings page; not automated scraper in project code
46.0,Orlando,FL,United States,North America,28.55,-81.3833,194.9,168.5,50.5,61.6,69.8,3.1,36.8,34.5,87.2,False,current_rolling,https://www.numbeo.com/quality-of-life/rankings_current.jsp,dataset_2_numbeo_current_quality_of_life_rankings; sourced from Numbeo current rolling city rankings page; not automated scraper in project code
47.0,Melbourne,,Australia,Oceania,-37.8333,145.0,194.8,155.3,55.7,72.1,76.5,8.0,42.0,28.1,94.3,False,current_rolling,https://www.numbeo.com/quality-of-life/rankings_current.jsp,dataset_2_numbeo_current_quality_of_life_rankings; sourced from Numbeo current rolling city rankings page; not automated scraper in project code
48.0,Jacksonville,FL,United States,North America,30.3333,-81.6667,194.7,170.2,43.6,69.0,64.3,2.7,34.9,38.2,87.8,False,current_rolling,https://www.numbeo.com/quality-of-life/rankings_current.jsp,dataset_2_numbeo_current_quality_of_life_rankings; sourced from Numbeo current rolling city rankings page; not automated scraper in project code
49.0,Pittsburgh,PA,United States,North America,40.4333,-80.0,193.9,177.0,60.6,71.0,67.6,2.8,37.7,46.9,72.1,False,current_rolling,https://www.numbeo.com/quality-of-life/rankings_current.jsp,dataset_2_numbeo_current_quality_of_life_rankings; sourced from Numbeo current rolling city rankings page; not automated scraper in project code
50.0,Madison,WI,United States,North America,43.0667,-89.3833,193.7,170.8,63.4,67.9,68.5,3.8,34.9,33.8,51.6,False,current_rolling,https://www.numbeo.com/quality-of-life/rankings_current.jsp,dataset_2_numbeo_current_quality_of_life_rankings; sourced from Numbeo current rolling city rankings page; not automated scraper in project code
51.0,Spokane,WA,United States,North America,47.6667,-117.4333,193.7,165.0,43.4,66.0,70.5,3.3,29.1,26.8,67.1,False,current_rolling,https://www.numbeo.com/quality-of-life/rankings_current.jsp,dataset_2_numbeo_current_quality_of_life_rankings; sourced from Numbeo current rolling city rankings page; not automated scraper in project code
52.0,Boise,ID,United States,North America,43.6167,-116.2,193.4,177.2,61.6,64.5,67.6,6.0,37.5,36.5,65.1,False,current_rolling,https://www.numbeo.com/quality-of-life/rankings_current.jsp,dataset_2_numbeo_current_quality_of_life_rankings; sourced from Numbeo current rolling city rankings page; not automated scraper in project code
53.0,Oklahoma City,OK,United States,North America,35.4667,-97.5167,192.9,156.0,49.3,63.7,68.4,2.8,32.1,29.7,77.6,False,current_rolling,https://www.numbeo.com/quality-of-life/rankings_current.jsp,dataset_2_numbeo_current_quality_of_life_rankings; sourced from Numbeo current rolling city rankings page; not automated scraper in project code
54.0,Tampa,FL,United States,North America,27.95,-82.45,192.9,156.4,55.2,66.2,68.3,4.1,36.5,34.2,84.7,True,current_rolling,https://www.numbeo.com/quality-of-life/rankings_current.jsp,dataset_2_numbeo_current_quality_of_life_rankings; sourced from Numbeo current rolling city rankings page; not automated scraper in project code
55.0,Richmond,VA,United States,North America,37.5333,-77.4333,192.5,170.3,49.3,65.9,68.8,3.2,40.1,35.3,81.3,False,current_rolling,https://www.numbeo.com/quality-of-life/rankings_current.jsp,dataset_2_numbeo_current_quality_of_life_rankings; sourced from Numbeo current rolling city rankings page; not automated scraper in project code
56.0,Cincinnati,OH,United States,North America,39.1,-84.5167,192.5,170.9,50.5,68.6,62.9,3.4,33.0,40.2,73.2,False,current_rolling,https://www.numbeo.com/quality-of-life/rankings_current.jsp,dataset_2_numbeo_current_quality_of_life_rankings; sourced from Numbeo current rolling city rankings page; not automated scraper in project code
57.0,Raleigh,NC,United States,North America,35.7833,-78.6333,192.4,173.2,51.0,65.2,65.7,3.5,39.8,39.7,83.9,False,current_rolling,https://www.numbeo.com/quality-of-life/rankings_current.jsp,dataset_2_numbeo_current_quality_of_life_rankings; sourced from Numbeo current rolling city rankings page; not automated scraper in project code
58.0,Austin,TX,United States,North America,30.2667,-97.75,192.3,180.0,56.0,64.8,69.4,5.3,40.5,42.8,82.1,False,current_rolling,https://www.numbeo.com/quality-of-life/rankings_current.jsp,dataset_2_numbeo_current_quality_of_life_rankings; sourced from Numbeo current rolling city rankings page; not automated scraper in project code
59.0,Tallinn,,Estonia,Europe,59.437,24.7536,192.3,107.0,78.4,73.9,63.7,10.1,24.4,18.2,64.3,False,current_rolling,https://www.numbeo.com/quality-of-life/rankings_current.jsp,dataset_2_numbeo_current_quality_of_life_rankings; sourced from Numbeo current rolling city rankings page; not automated scraper in project code
60.0,Tulsa,OK,United States,North America,36.15,-96.0,191.9,154.9,48.0,68.7,63.7,2.6,35.1,32.2,79.3,False,current_rolling,https://www.numbeo.com/quality-of-life/rankings_current.jsp,dataset_2_numbeo_current_quality_of_life_rankings; sourced from Numbeo current rolling city rankings page; not automated scraper in project code
61.0,Charlotte,NC,United States,North America,35.2167,-80.85,191.6,159.2,51.0,67.9,69.7,3.9,35.8,35.9,84.0,False,current_rolling,https://www.numbeo.com/quality-of-life/rankings_current.jsp,dataset_2_numbeo_current_quality_of_life_rankings; sourced from Numbeo current rolling city rankings page; not automated scraper in project code
62.0,Omaha,NE,United States,North America,41.2667,-95.9333,191.6,162.2,53.5,69.3,65.7,2.4,27.4,37.6,59.8,False,current_rolling,https://www.numbeo.com/quality-of-life/rankings_current.jsp,dataset_2_numbeo_current_quality_of_life_rankings; sourced from Numbeo current rolling city rankings page; not automated scraper in project code
63.0,Columbus,OH,United States,North America,39.9612,-82.9988,191.3,153.9,50.7,68.6,70.2,3.3,31.2,31.4,71.3,False,current_rolling,https://www.numbeo.com/quality-of-life/rankings_current.jsp,dataset_2_numbeo_current_quality_of_life_rankings; sourced from Numbeo current rolling city rankings page; not automated scraper in project code
64.0,Nanaimo,BC,Canada,North America,49.1659,-123.9401,191.3,139.6,47.1,61.4,61.2,5.9,26.0,27.6,92.3,False,current_rolling,https://www.numbeo.com/quality-of-life/rankings_current.jsp,dataset_2_numbeo_current_quality_of_life_rankings; sourced from Numbeo current rolling city rankings page; not automated scraper in project code
65.0,Sacramento,CA,United States,North America,38.5833,-121.5,190.8,163.2,50.6,67.4,76.8,4.4,27.1,46.9,90.6,False,current_rolling,https://www.numbeo.com/quality-of-life/rankings_current.jsp,dataset_2_numbeo_current_quality_of_life_rankings; sourced from Numbeo current rolling city rankings page; not automated scraper in project code
66.0,Kansas City,MO,United States,North America,39.0997,-94.5786,190.4,162.9,41.4,68.6,66.5,2.9,32.6,33.3,75.1,False,current_rolling,https://www.numbeo.com/quality-of-life/rankings_current.jsp,dataset_2_numbeo_current_quality_of_life_rankings; sourced from Numbeo current rolling city rankings page; not automated scraper in project code
67.0,Reno,NV,United States,North America,39.5167,-119.8167,189.9,158.1,54.3,62.6,75.1,3.9,29.1,30.4,62.3,False,current_rolling,https://www.numbeo.com/quality-of-life/rankings_current.jsp,dataset_2_numbeo_current_quality_of_life_rankings; sourced from Numbeo current rolling city rankings page; not automated scraper in project code
68.0,Edmonton,,Canada,North America,53.55,-113.4667,189.9,161.2,53.2,76.7,63.2,3.3,27.9,28.6,32.1,False,current_rolling,https://www.numbeo.com/quality-of-life/rankings_current.jsp,dataset_2_numbeo_current_quality_of_life_rankings; sourced from Numbeo current rolling city rankings page; not automated scraper in project code
69.0,Cambridge,,United Kingdom,Europe,52.2053,0.1218,189.9,152.6,59.5,71.6,74.1,8.8,39.5,36.2,91.4,False,current_rolling,https://www.numbeo.com/quality-of-life/rankings_current.jsp,dataset_2_numbeo_current_quality_of_life_rankings; sourced from Numbeo current rolling city rankings page; not automated scraper in project code
70.0,Colorado Springs,CO,United States,North America,38.8333,-104.8167,189.9,157.8,58.4,61.9,72.4,2.9,26.0,31.8,51.4,False,current_rolling,https://www.numbeo.com/quality-of-life/rankings_current.jsp,dataset_2_numbeo_current_quality_of_life_rankings; sourced from Numbeo current rolling city rankings page; not automated scraper in project code
71.0,Sydney,,Australia,Oceania,-33.8833,151.2,189.7,136.1,66.1,74.6,77.8,11.3,43.5,28.7,97.1,False,current_rolling,https://www.numbeo.com/quality-of-life/rankings_current.jsp,dataset_2_numbeo_current_quality_of_life_rankings; sourced from Numbeo current rolling city rankings page; not automated scraper in project code
72.0,Seattle,WA,United States,North America,47.6167,-122.3333,189.6,178.3,44.7,66.8,88.8,5.1,42.9,38.8,91.7,True,current_rolling,https://www.numbeo.com/quality-of-life/rankings_current.jsp,dataset_2_numbeo_current_quality_of_life_rankings; sourced from Numbeo current rolling city rankings page; not automated scraper in project code
73.0,Victoria,,Canada,North America,48.4167,-123.3667,189.4,121.7,60.1,65.6,66.7,8.6,31.8,22.7,92.5,False,current_rolling,https://www.numbeo.com/quality-of-life/rankings_current.jsp,dataset_2_numbeo_current_quality_of_life_rankings; sourced from Numbeo current rolling city rankings page; not automated scraper in project code
74.0,Valencia,,Spain,Europe,39.4667,-0.3667,189.4,102.9,62.8,77.0,51.2,11.5,19.7,28.2,93.8,False,current_rolling,https://www.numbeo.com/quality-of-life/rankings_current.jsp,dataset_2_numbeo_current_quality_of_life_rankings; sourced from Numbeo current rolling city rankings page; not automated scraper in project code
75.0,Belfast,,United Kingdom,Europe,54.5973,-5.9301,189.2,133.8,51.5,70.8,68.4,5.4,37.3,26.6,90.8,False,current_rolling,https://www.numbeo.com/quality-of-life/rankings_current.jsp,dataset_2_numbeo_current_quality_of_life_rankings; sourced from Numbeo current rolling city rankings page; not automated scraper in project code
76.0,Fort Worth,TX,United States,North America,32.75,-97.3333,188.8,168.8,56.7,63.6,70.1,3.4,27.3,53.4,81.6,False,current_rolling,https://www.numbeo.com/quality-of-life/rankings_current.jsp,dataset_2_numbeo_current_quality_of_life_rankings; sourced from Numbeo current rolling city rankings page; not automated scraper in project code
77.0,Buffalo,NY,United States,North America,42.8833,-78.8667,188.3,141.3,51.4,70.3,72.3,3.3,26.8,30.3,66.4,False,current_rolling,https://www.numbeo.com/quality-of-life/rankings_current.jsp,dataset_2_numbeo_current_quality_of_life_rankings; sourced from Numbeo current rolling city rankings page; not automated scraper in project code
78.0,Oslo,,Norway,Europe,59.9167,10.7333,188.2,132.9,65.7,77.4,96.5,10.7,27.8,21.7,60.0,False,current_rolling,https://www.numbeo.com/quality-of-life/rankings_current.jsp,dataset_2_numbeo_current_quality_of_life_rankings; sourced from Numbeo current rolling city rankings page; not automated scraper in project code
79.0,Indianapolis,IN,United States,North America,39.7667,-86.1667,188.0,172.4,40.2,71.9,67.6,2.7,29.4,43.5,69.9,False,current_rolling,https://www.numbeo.com/quality-of-life/rankings_current.jsp,dataset_2_numbeo_current_quality_of_life_rankings; sourced from Numbeo current rolling city rankings page; not automated scraper in project code
80.0,Boston,MA,United States,North America,42.35,-71.05,187.9,167.2,59.7,69.0,86.4,7.6,45.0,32.5,71.7,False,current_rolling,https://www.numbeo.com/quality-of-life/rankings_current.jsp,dataset_2_numbeo_current_quality_of_life_rankings; sourced from Numbeo current rolling city rankings page; not automated scraper in project code
81.0,Vilnius,,Lithuania,Europe,54.6872,25.2797,187.2,114.3,69.3,76.8,51.9,12.3,25.9,23.4,66.6,False,current_rolling,https://www.numbeo.com/quality-of-life/rankings_current.jsp,dataset_2_numbeo_current_quality_of_life_rankings; sourced from Numbeo current rolling city rankings page; not automated scraper in project code
82.0,San Antonio,TX,United States,North America,29.4333,-98.4833,187.2,169.0,50.2,66.8,63.9,3.8,36.7,45.6,80.6,False,current_rolling,https://www.numbeo.com/quality-of-life/rankings_current.jsp,dataset_2_numbeo_current_quality_of_life_rankings; sourced from Numbeo current rolling city rankings page; not automated scraper in project code
83.0,San Diego,CA,United States,North America,32.7167,-117.15,187.2,141.8,60.1,67.1,80.2,7.1,34.9,39.3,97.1,False,current_rolling,https://www.numbeo.com/quality-of-life/rankings_current.jsp,dataset_2_numbeo_current_quality_of_life_rankings; sourced from Numbeo current rolling city rankings page; not automated scraper in project code
84.0,Muscat,,Oman,Middle East,23.588,58.3829,187.1,112.0,81.4,63.3,46.0,6.3,22.5,35.9,67.2,False,current_rolling,https://www.numbeo.com/quality-of-life/rankings_current.jsp,dataset_2_numbeo_current_quality_of_life_rankings; sourced from Numbeo current rolling city rankings page; not automated scraper in project code
85.0,Vancouver,,Canada,North America,49.2833,-123.1167,186.8,130.5,57.2,71.6,67.5,11.3,35.9,25.5,91.2,False,current_rolling,https://www.numbeo.com/quality-of-life/rankings_current.jsp,dataset_2_numbeo_current_quality_of_life_rankings; sourced from Numbeo current rolling city rankings page; not automated scraper in project code
86.0,Quebec City,,Canada,North America,46.8139,-71.208,186.6,146.6,77.6,69.0,58.7,7.6,33.4,36.4,48.0,False,current_rolling,https://www.numbeo.com/quality-of-life/rankings_current.jsp,dataset_2_numbeo_current_quality_of_life_rankings; sourced from Numbeo current rolling city rankings page; not automated scraper in project code
87.0,Saint Louis,MO,United States,North America,38.627,-90.1994,186.6,168.1,29.9,69.9,73.3,2.0,28.4,37.5,74.8,False,current_rolling,https://www.numbeo.com/quality-of-life/rankings_current.jsp,dataset_2_numbeo_current_quality_of_life_rankings; sourced from Numbeo current rolling city rankings page; not automated scraper in project code
88.0,Washington,DC,United States,North America,38.9,-77.0167,186.4,181.5,40.3,71.0,89.1,4.4,41.2,42.1,81.6,False,current_rolling,https://www.numbeo.com/quality-of-life/rankings_current.jsp,dataset_2_numbeo_current_quality_of_life_rankings; sourced from Numbeo current rolling city rankings page; not automated scraper in project code
89.0,Rijeka,,Croatia,Europe,45.3271,14.4422,185.6,92.2,76.9,67.2,52.2,13.3,17.0,31.9,94.9,False,current_rolling,https://www.numbeo.com/quality-of-life/rankings_current.jsp,dataset_2_numbeo_current_quality_of_life_rankings; sourced from Numbeo current rolling city rankings page; not automated scraper in project code
90.0,Atlanta,GA,United States,North America,33.75,-84.4,184.8,179.8,35.9,65.9,76.2,3.0,41.3,45.1,89.7,False,current_rolling,https://www.numbeo.com/quality-of-life/rankings_current.jsp,dataset_2_numbeo_current_quality_of_life_rankings; sourced from Numbeo current rolling city rankings page; not automated scraper in project code
91.0,Albuquerque,NM,United States,North America,35.0833,-106.65,184.7,180.0,29.1,63.4,62.1,2.9,25.9,41.1,67.1,False,current_rolling,https://www.numbeo.com/quality-of-life/rankings_current.jsp,dataset_2_numbeo_current_quality_of_life_rankings; sourced from Numbeo current rolling city rankings page; not automated scraper in project code
92.0,Toulouse,,France,Europe,43.6167,1.45,184.7,133.4,50.1,79.4,69.7,8.4,32.2,36.9,91.9,False,current_rolling,https://www.numbeo.com/quality-of-life/rankings_current.jsp,dataset_2_numbeo_current_quality_of_life_rankings; sourced from Numbeo current rolling city rankings page; not automated scraper in project code
93.0,Leeds,,United Kingdom,Europe,53.8333,-1.5833,184.7,137.3,54.5,79.1,66.2,5.7,29.8,45.1,84.6,False,current_rolling,https://www.numbeo.com/quality-of-life/rankings_current.jsp,dataset_2_numbeo_current_quality_of_life_rankings; sourced from Numbeo current rolling city rankings page; not automated scraper in project code
94.0,Portland,OR,United States,North America,45.5152,-122.6784,184.5,154.7,42.0,65.4,79.7,3.9,37.4,35.7,89.6,False,current_rolling,https://www.numbeo.com/quality-of-life/rankings_current.jsp,dataset_2_numbeo_current_quality_of_life_rankings; sourced from Numbeo current rolling city rankings page; not automated scraper in project code
95.0,Cologne,,Germany,Europe,50.9375,6.9603,184.2,147.4,55.0,72.3,70.8,9.2,36.7,37.1,84.8,False,current_rolling,https://www.numbeo.com/quality-of-life/rankings_current.jsp,dataset_2_numbeo_current_quality_of_life_rankings; sourced from Numbeo current rolling city rankings page; not automated scraper in project code
96.0,Minneapolis,MN,United States,North America,44.9833,-93.2667,183.9,161.6,43.9,71.7,72.6,3.2,36.5,28.7,49.5,False,current_rolling,https://www.numbeo.com/quality-of-life/rankings_current.jsp,dataset_2_numbeo_current_quality_of_life_rankings; sourced from Numbeo current rolling city rankings page; not automated scraper in project code
97.0,Auckland,,New Zealand,Oceania,-36.85,174.75,183.8,136.0,49.4,69.1,66.0,10.5,37.5,30.6,99.9,False,current_rolling,https://www.numbeo.com/quality-of-life/rankings_current.jsp,dataset_2_numbeo_current_quality_of_life_rankings; sourced from Numbeo current rolling city rankings page; not automated scraper in project code
98.0,Anchorage,AK,United States,North America,61.2167,-149.8833,183.8,155.5,37.1,61.5,84.1,3.7,25.6,15.7,41.6,False,current_rolling,https://www.numbeo.com/quality-of-life/rankings_current.jsp,dataset_2_numbeo_current_quality_of_life_rankings; sourced from Numbeo current rolling city rankings page; not automated scraper in project code
99.0,Kaunas,,Lithuania,Europe,54.8985,23.9036,183.6,107.2,63.2,74.9,51.7,8.8,26.0,25.3,68.9,False,current_rolling,https://www.numbeo.com/quality-of-life/rankings_current.jsp,dataset_2_numbeo_current_quality_of_life_rankings; sourced from Numbeo current rolling city rankings page; not automated scraper in project code
100.0,Calgary,,Canada,North America,51.05,-114.0833,183.5,137.0,62.1,73.1,63.0,5.9,29.4,23.6,33.1,False,current_rolling,https://www.numbeo.com/quality-of-life/rankings_current.jsp,dataset_2_numbeo_current_quality_of_life_rankings; sourced from Numbeo current rolling city rankings page; not automated scraper in project code
101.0,Porto,,Portugal,Europe,41.15,-8.6167,183.0,85.1,66.3,78.8,50.4,14.3,24.7,24.5,96.6,False,current_rolling,https://www.numbeo.com/quality-of-life/rankings_current.jsp,dataset_2_numbeo_current_quality_of_life_rankings; sourced from Numbeo current rolling city rankings page; not automated scraper in project code
102.0,Stockholm,,Sweden,Europe,59.3333,18.05,182.9,139.0,53.8,65.7,80.7,12.0,34.1,18.1,69.7,False,current_rolling,https://www.numbeo.com/quality-of-life/rankings_current.jsp,dataset_2_numbeo_current_quality_of_life_rankings; sourced from Numbeo current rolling city rankings page; not automated scraper in project code
103.0,San Jose,CA,United States,North America,37.3333,-121.8833,182.5,162.2,52.0,68.0,87.2,7.3,38.3,48.4,95.5,False,current_rolling,https://www.numbeo.com/quality-of-life/rankings_current.jsp,dataset_2_numbeo_current_quality_of_life_rankings; sourced from Numbeo current rolling city rankings page; not automated scraper in project code
104.0,Madrid,,Spain,Europe,40.4,-3.6833,181.8,113.0,71.0,79.2,59.1,13.5,28.2,38.4,85.5,True,current_rolling,https://www.numbeo.com/quality-of-life/rankings_current.jsp,dataset_2_numbeo_current_quality_of_life_rankings; sourced from Numbeo current rolling city rankings page; not automated scraper in project code
105.0,Qingdao,Shandong,China,Asia,36.0671,120.3826,181.8,117.4,88.2,76.7,29.3,13.0,27.9,50.5,70.4,False,current_rolling,https://www.numbeo.com/quality-of-life/rankings_current.jsp,dataset_2_numbeo_current_quality_of_life_rankings; sourced from Numbeo current rolling city rankings page; not automated scraper in project code
106.0,Nashville,TN,United States,North America,36.1667,-86.7833,181.4,151.9,50.8,63.8,72.7,6.0,38.4,38.2,83.0,False,current_rolling,https://www.numbeo.com/quality-of-life/rankings_current.jsp,dataset_2_numbeo_current_quality_of_life_rankings; sourced from Numbeo current rolling city rankings page; not automated scraper in project code
107.0,Manama,,Bahrain,Middle East,26.2,50.6333,181.3,144.9,82.0,67.7,44.3,4.8,30.8,62.3,64.3,False,current_rolling,https://www.numbeo.com/quality-of-life/rankings_current.jsp,dataset_2_numbeo_current_quality_of_life_rankings; sourced from Numbeo current rolling city rankings page; not automated scraper in project code
108.0,Malaga,,Spain,Europe,36.7167,-4.4167,181.3,98.9,68.2,70.8,51.8,10.4,25.2,37.2,97.0,False,current_rolling,https://www.numbeo.com/quality-of-life/rankings_current.jsp,dataset_2_numbeo_current_quality_of_life_rankings; sourced from Numbeo current rolling city rankings page; not automated scraper in project code
109.0,Halifax,,Canada,North America,44.6488,-63.5752,181.2,121.8,60.4,65.0,61.4,5.4,31.3,24.3,59.0,False,current_rolling,https://www.numbeo.com/quality-of-life/rankings_current.jsp,dataset_2_numbeo_current_quality_of_life_rankings; sourced from Numbeo current rolling city rankings page; not automated scraper in project code
110.0,Salt Lake City,UT,United States,North America,40.75,-111.8833,181.1,171.1,64.7,66.9,64.8,4.2,33.6,61.7,66.5,False,current_rolling,https://www.numbeo.com/quality-of-life/rankings_current.jsp,dataset_2_numbeo_current_quality_of_life_rankings; sourced from Numbeo current rolling city rankings page; not automated scraper in project code
111.0,Zagreb,,Croatia,Europe,45.815,15.9819,181.0,108.2,78.4,64.8,53.1,11.1,29.6,35.5,82.2,False,current_rolling,https://www.numbeo.com/quality-of-life/rankings_current.jsp,dataset_2_numbeo_current_quality_of_life_rankings; sourced from Numbeo current rolling city rankings page; not automated scraper in project code
112.0,Dallas,TX,United States,North America,32.7833,-96.8,180.9,154.8,48.6,66.7,73.9,6.8,35.3,41.1,81.9,False,current_rolling,https://www.numbeo.com/quality-of-life/rankings_current.jsp,dataset_2_numbeo_current_quality_of_life_rankings; sourced from Numbeo current rolling city rankings page; not automated scraper in project code
113.0,Tokyo,,Japan,Asia,35.6762,139.6503,180.4,132.3,75.9,78.3,53.7,15.1,42.7,42.5,85.3,True,current_rolling,https://www.numbeo.com/quality-of-life/rankings_current.jsp,dataset_2_numbeo_current_quality_of_life_rankings; sourced from Numbeo current rolling city rankings page; not automated scraper in project code
114.0,Dubai,,United Arab Emirates,Middle East,25.2333,55.2833,180.4,145.2,83.8,70.0,61.7,7.2,36.3,49.3,50.3,False,current_rolling,https://www.numbeo.com/quality-of-life/rankings_current.jsp,dataset_2_numbeo_current_quality_of_life_rankings; sourced from Numbeo current rolling city rankings page; not automated scraper in project code
115.0,Ljubljana,,Slovenia,Europe,46.0667,14.5,179.7,96.1,78.2,66.6,56.9,14.9,26.3,24.0,76.1,False,current_rolling,https://www.numbeo.com/quality-of-life/rankings_current.jsp,dataset_2_numbeo_current_quality_of_life_rankings; sourced from Numbeo current rolling city rankings page; not automated scraper in project code
116.0,Milwaukee,WI,United States,North America,43.0333,-87.9,179.5,156.4,34.4,63.4,65.6,2.9,30.3,32.0,61.0,False,current_rolling,https://www.numbeo.com/quality-of-life/rankings_current.jsp,dataset_2_numbeo_current_quality_of_life_rankings; sourced from Numbeo current rolling city rankings page; not automated scraper in project code
117.0,Berlin,,Germany,Europe,52.55,13.3667,179.5,141.1,55.4,66.1,70.7,9.9,33.2,38.0,83.3,False,current_rolling,https://www.numbeo.com/quality-of-life/rankings_current.jsp,dataset_2_numbeo_current_quality_of_life_rankings; sourced from Numbeo current rolling city rankings page; not automated scraper in project code
118.0,Cleveland,OH,United States,North America,41.5,-81.7,179.0,146.3,36.1,71.9,63.5,2.2,31.5,39.6,73.1,False,current_rolling,https://www.numbeo.com/quality-of-life/rankings_current.jsp,dataset_2_numbeo_current_quality_of_life_rankings; sourced from Numbeo current rolling city rankings page; not automated scraper in project code
119.0,Split,,Croatia,Europe,43.5167,16.4667,178.1,84.5,69.8,68.4,56.9,18.1,15.7,27.6,96.3,False,current_rolling,https://www.numbeo.com/quality-of-life/rankings_current.jsp,dataset_2_numbeo_current_quality_of_life_rankings; sourced from Numbeo current rolling city rankings page; not automated scraper in project code
120.0,Houston,TX,United States,North America,29.75,-95.3667,177.9,176.8,36.9,69.4,63.3,2.5,41.8,56.7,85.5,False,current_rolling,https://www.numbeo.com/quality-of-life/rankings_current.jsp,dataset_2_numbeo_current_quality_of_life_rankings; sourced from Numbeo current rolling city rankings page; not automated scraper in project code
,Osaka,,Japan,Asia,34.6667,135.5,177.65,116.17,67.05,82.16,43.31,10.4,34.58,46.93,84.32,True,current_rolling,https://www.numbeo.com/quality-of-life/in/Osaka,dataset_2_manual_required_city_addition; Osaka not listed on Numbeo current city rankings page due to insufficient contributors; values supplied from Osaka individual Numbeo quality-of-life page; source_rank intentionally blank and row inserted by quality-of-life index position.
121.0,Oakland,CA,United States,North America,37.8,-122.2667,177.4,155.4,31.4,72.0,83.1,6.5,36.5,42.4,96.4,False,current_rolling,https://www.numbeo.com/quality-of-life/rankings_current.jsp,dataset_2_numbeo_current_quality_of_life_rankings; sourced from Numbeo current rolling city rankings page; not automated scraper in project code
122.0,Haifa,,Israel,Middle East,32.8167,34.9833,177.4,146.3,71.5,74.5,89.6,10.1,28.5,66.8,93.6,False,current_rolling,https://www.numbeo.com/quality-of-life/rankings_current.jsp,dataset_2_numbeo_current_quality_of_life_rankings; sourced from Numbeo current rolling city rankings page; not automated scraper in project code
123.0,Kelowna,,Canada,North America,49.8879,-119.496,177.3,130.5,38.4,74.6,62.7,6.1,27.9,26.3,59.7,False,current_rolling,https://www.numbeo.com/quality-of-life/rankings_current.jsp,dataset_2_numbeo_current_quality_of_life_rankings; sourced from Numbeo current rolling city rankings page; not automated scraper in project code
124.0,Bristol,,United Kingdom,Europe,51.45,-2.5833,177.2,132.0,56.7,73.2,70.1,8.6,31.1,47.4,88.5,False,current_rolling,https://www.numbeo.com/quality-of-life/rankings_current.jsp,dataset_2_numbeo_current_quality_of_life_rankings; sourced from Numbeo current rolling city rankings page; not automated scraper in project code
125.0,Birmingham,,United Kingdom,Europe,52.4833,-1.8833,177.1,163.2,36.0,70.8,69.5,6.1,33.4,51.0,87.7,False,current_rolling,https://www.numbeo.com/quality-of-life/rankings_current.jsp,dataset_2_numbeo_current_quality_of_life_rankings; sourced from Numbeo current rolling city rankings page; not automated scraper in project code
126.0,Brno,,Czech Republic,Europe,49.2167,16.6667,176.9,107.6,75.2,76.1,52.6,15.3,26.2,39.9,78.2,False,current_rolling,https://www.numbeo.com/quality-of-life/rankings_current.jsp,dataset_2_numbeo_current_quality_of_life_rankings; sourced from Numbeo current rolling city rankings page; not automated scraper in project code
127.0,Mississauga,,Canada,North America,43.589,-79.6441,176.5,129.9,56.1,70.2,61.8,11.5,35.6,23.5,58.7,False,current_rolling,https://www.numbeo.com/quality-of-life/rankings_current.jsp,dataset_2_numbeo_current_quality_of_life_rankings; sourced from Numbeo current rolling city rankings page; not automated scraper in project code
128.0,Baltimore,MD,United States,North America,39.2833,-76.6167,176.4,166.5,28.8,72.2,72.4,2.8,31.7,52.0,81.2,False,current_rolling,https://www.numbeo.com/quality-of-life/rankings_current.jsp,dataset_2_numbeo_current_quality_of_life_rankings; sourced from Numbeo current rolling city rankings page; not automated scraper in project code
129.0,Abu Dhabi,,United Arab Emirates,Middle East,24.4667,54.4167,176.3,115.7,88.7,72.3,52.9,7.1,30.0,45.8,43.9,False,current_rolling,https://www.numbeo.com/quality-of-life/rankings_current.jsp,dataset_2_numbeo_current_quality_of_life_rankings; sourced from Numbeo current rolling city rankings page; not automated scraper in project code
130.0,Prague,,Czech Republic,Europe,50.0755,14.4378,175.8,109.5,75.3,74.8,57.8,18.8,31.8,33.0,80.7,False,current_rolling,https://www.numbeo.com/quality-of-life/rankings_current.jsp,dataset_2_numbeo_current_quality_of_life_rankings; sourced from Numbeo current rolling city rankings page; not automated scraper in project code
131.0,Hyderabad,,India,Asia,17.3667,78.4333,175.0,184.4,57.4,65.5,20.5,4.4,42.2,76.0,73.5,False,current_rolling,https://www.numbeo.com/quality-of-life/rankings_current.jsp,dataset_2_numbeo_current_quality_of_life_rankings; sourced from Numbeo current rolling city rankings page; not automated scraper in project code
132.0,Montreal,,Canada,North America,45.5,-73.5833,174.4,136.5,67.1,61.9,59.6,7.5,40.1,33.7,52.4,False,current_rolling,https://www.numbeo.com/quality-of-life/rankings_current.jsp,dataset_2_numbeo_current_quality_of_life_rankings; sourced from Numbeo current rolling city rankings page; not automated scraper in project code
133.0,San Francisco,CA,United States,North America,37.7833,-122.4167,174.3,175.5,39.5,64.9,95.6,7.3,49.0,49.0,97.3,True,current_rolling,https://www.numbeo.com/quality-of-life/rankings_current.jsp,dataset_2_numbeo_current_quality_of_life_rankings; sourced from Numbeo current rolling city rankings page; not automated scraper in project code
134.0,London,,Canada,North America,42.9849,-81.2453,174.3,138.5,46.2,67.3,61.4,5.9,30.0,35.6,59.3,True,current_rolling,https://www.numbeo.com/quality-of-life/rankings_current.jsp,dataset_2_numbeo_current_quality_of_life_rankings; sourced from Numbeo current rolling city rankings page; not automated scraper in project code
135.0,Bursa,,Turkey,Middle East,40.2,29.0667,173.3,84.4,70.9,77.5,39.4,6.2,33.8,46.4,93.4,False,current_rolling,https://www.numbeo.com/quality-of-life/rankings_current.jsp,dataset_2_numbeo_current_quality_of_life_rankings; sourced from Numbeo current rolling city rankings page; not automated scraper in project code
136.0,Trieste,,Italy,Europe,45.6495,13.7768,173.3,96.8,72.7,64.5,63.3,7.8,28.8,45.0,92.6,False,current_rolling,https://www.numbeo.com/quality-of-life/rankings_current.jsp,dataset_2_numbeo_current_quality_of_life_rankings; sourced from Numbeo current rolling city rankings page; not automated scraper in project code
137.0,Toronto,,Canada,North America,43.65,-79.3833,172.2,142.7,56.4,74.0,65.9,10.9,43.9,37.5,65.3,True,current_rolling,https://www.numbeo.com/quality-of-life/rankings_current.jsp,dataset_2_numbeo_current_quality_of_life_rankings; sourced from Numbeo current rolling city rankings page; not automated scraper in project code
138.0,Jeddah (Jiddah),,Saudi Arabia,Middle East,21.4858,39.1925,171.8,136.1,75.1,60.8,43.0,3.6,29.9,65.5,66.2,False,current_rolling,https://www.numbeo.com/quality-of-life/rankings_current.jsp,dataset_2_numbeo_current_quality_of_life_rankings; sourced from Numbeo current rolling city rankings page; not automated scraper in project code
139.0,Timisoara,,Romania,Europe,45.7489,21.2087,170.3,101.0,74.2,71.4,39.8,9.1,24.7,56.5,82.0,False,current_rolling,https://www.numbeo.com/quality-of-life/rankings_current.jsp,dataset_2_numbeo_current_quality_of_life_rankings; sourced from Numbeo current rolling city rankings page; not automated scraper in project code
140.0,Denver,CO,United States,North America,39.75,-104.9833,169.5,146.0,52.0,68.1,76.7,5.4,35.5,44.9,56.3,False,current_rolling,https://www.numbeo.com/quality-of-life/rankings_current.jsp,dataset_2_numbeo_current_quality_of_life_rankings; sourced from Numbeo current rolling city rankings page; not automated scraper in project code
141.0,Antwerp,,Belgium,Europe,51.2194,4.4025,169.4,126.8,60.2,79.7,71.5,6.5,38.8,58.2,85.4,False,current_rolling,https://www.numbeo.com/quality-of-life/rankings_current.jsp,dataset_2_numbeo_current_quality_of_life_rankings; sourced from Numbeo current rolling city rankings page; not automated scraper in project code
142.0,Doha,,Qatar,Middle East,25.25,51.6,169.2,127.1,84.5,73.7,52.2,6.1,28.9,59.5,36.0,False,current_rolling,https://www.numbeo.com/quality-of-life/rankings_current.jsp,dataset_2_numbeo_current_quality_of_life_rankings; sourced from Numbeo current rolling city rankings page; not automated scraper in project code
143.0,Philadelphia,PA,United States,North America,39.95,-75.15,169.2,151.0,34.4,71.1,79.0,3.3,39.7,47.7,78.0,False,current_rolling,https://www.numbeo.com/quality-of-life/rankings_current.jsp,dataset_2_numbeo_current_quality_of_life_rankings; sourced from Numbeo current rolling city rankings page; not automated scraper in project code
144.0,Port Elizabeth,,South Africa,Africa,-33.9667,25.6,168.7,131.0,21.7,62.5,38.5,2.0,33.9,44.5,98.8,False,current_rolling,https://www.numbeo.com/quality-of-life/rankings_current.jsp,dataset_2_numbeo_current_quality_of_life_rankings; sourced from Numbeo current rolling city rankings page; not automated scraper in project code
145.0,Lyon,,France,Europe,45.75,4.85,168.3,139.3,40.7,76.5,72.0,8.4,35.8,51.7,88.5,False,current_rolling,https://www.numbeo.com/quality-of-life/rankings_current.jsp,dataset_2_numbeo_current_quality_of_life_rankings; sourced from Numbeo current rolling city rankings page; not automated scraper in project code
146.0,New Orleans,LA,United States,North America,29.95,-90.0667,168.0,144.7,32.1,61.7,76.5,4.0,28.0,50.6,86.5,False,current_rolling,https://www.numbeo.com/quality-of-life/rankings_current.jsp,dataset_2_numbeo_current_quality_of_life_rankings; sourced from Numbeo current rolling city rankings page; not automated scraper in project code
147.0,Genoa,,Italy,Europe,44.4056,8.9463,167.4,110.0,54.8,66.5,62.0,5.6,33.7,50.5,95.0,False,current_rolling,https://www.numbeo.com/quality-of-life/rankings_current.jsp,dataset_2_numbeo_current_quality_of_life_rankings; sourced from Numbeo current rolling city rankings page; not automated scraper in project code
148.0,Seoul,,South Korea,Asia,37.5665,126.978,167.3,141.3,74.5,83.0,62.1,23.6,40.9,48.3,68.4,False,current_rolling,https://www.numbeo.com/quality-of-life/rankings_current.jsp,dataset_2_numbeo_current_quality_of_life_rankings; sourced from Numbeo current rolling city rankings page; not automated scraper in project code
149.0,Riga,,Latvia,Europe,56.9496,24.1052,164.1,92.6,62.7,60.7,54.7,8.5,30.2,36.7,74.7,False,current_rolling,https://www.numbeo.com/quality-of-life/rankings_current.jsp,dataset_2_numbeo_current_quality_of_life_rankings; sourced from Numbeo current rolling city rankings page; not automated scraper in project code
150.0,Tel Aviv-Yafo,,Israel,Middle East,32.0833,34.7667,164.0,118.3,73.8,73.9,104.3,21.4,36.6,46.5,93.9,False,current_rolling,https://www.numbeo.com/quality-of-life/rankings_current.jsp,dataset_2_numbeo_current_quality_of_life_rankings; sourced from Numbeo current rolling city rankings page; not automated scraper in project code
151.0,Pune,,India,Asia,18.5204,73.8567,163.9,156.8,58.7,65.6,21.5,7.5,44.2,71.3,74.3,False,current_rolling,https://www.numbeo.com/quality-of-life/rankings_current.jsp,dataset_2_numbeo_current_quality_of_life_rankings; sourced from Numbeo current rolling city rankings page; not automated scraper in project code
152.0,Honolulu,HI,United States,North America,21.3167,-157.8667,163.8,103.6,52.7,72.5,101.9,9.6,40.4,37.1,95.3,False,current_rolling,https://www.numbeo.com/quality-of-life/rankings_current.jsp,dataset_2_numbeo_current_quality_of_life_rankings; sourced from Numbeo current rolling city rankings page; not automated scraper in project code
153.0,Limassol,,Cyprus,Europe,34.6667,33.05,163.8,114.5,59.9,50.9,63.3,8.6,23.0,56.6,95.7,False,current_rolling,https://www.numbeo.com/quality-of-life/rankings_current.jsp,dataset_2_numbeo_current_quality_of_life_rankings; sourced from Numbeo current rolling city rankings page; not automated scraper in project code
154.0,Cluj-Napoca,,Romania,Europe,46.7712,23.6236,163.8,89.9,77.5,66.6,45.6,14.4,29.9,42.7,74.3,False,current_rolling,https://www.numbeo.com/quality-of-life/rankings_current.jsp,dataset_2_numbeo_current_quality_of_life_rankings; sourced from Numbeo current rolling city rankings page; not automated scraper in project code
155.0,Riyadh,,Saudi Arabia,Middle East,24.7136,46.6753,163.7,135.8,75.4,66.2,48.2,5.2,34.1,63.8,44.4,False,current_rolling,https://www.numbeo.com/quality-of-life/rankings_current.jsp,dataset_2_numbeo_current_quality_of_life_rankings; sourced from Numbeo current rolling city rankings page; not automated scraper in project code
156.0,Poznan,,Poland,Europe,52.4064,16.9252,163.4,117.0,72.4,58.0,46.5,8.9,31.6,58.8,77.4,False,current_rolling,https://www.numbeo.com/quality-of-life/rankings_current.jsp,dataset_2_numbeo_current_quality_of_life_rankings; sourced from Numbeo current rolling city rankings page; not automated scraper in project code
157.0,Ad Dammam,,Saudi Arabia,Middle East,26.4207,50.0888,163.3,135.5,72.0,60.2,42.5,2.3,28.4,59.1,27.3,False,current_rolling,https://www.numbeo.com/quality-of-life/rankings_current.jsp,dataset_2_numbeo_current_quality_of_life_rankings; sourced from Numbeo current rolling city rankings page; not automated scraper in project code
158.0,Las Vegas,NV,United States,North America,36.1667,-115.15,162.7,149.0,44.7,53.6,69.1,5.0,27.1,51.5,57.4,False,current_rolling,https://www.numbeo.com/quality-of-life/rankings_current.jsp,dataset_2_numbeo_current_quality_of_life_rankings; sourced from Numbeo current rolling city rankings page; not automated scraper in project code
159.0,Manchester,,United Kingdom,Europe,53.4667,-2.2333,162.5,125.8,44.2,74.5,66.9,7.6,39.0,52.3,86.9,False,current_rolling,https://www.numbeo.com/quality-of-life/rankings_current.jsp,dataset_2_numbeo_current_quality_of_life_rankings; sourced from Numbeo current rolling city rankings page; not automated scraper in project code
160.0,Antalya,,Turkey,Middle East,36.8969,30.7133,162.4,72.1,70.8,73.5,39.0,10.0,36.2,44.7,91.5,False,current_rolling,https://www.numbeo.com/quality-of-life/rankings_current.jsp,dataset_2_numbeo_current_quality_of_life_rankings; sourced from Numbeo current rolling city rankings page; not automated scraper in project code
161.0,Miami,FL,United States,North America,25.7833,-80.2,162.2,118.6,46.7,63.0,83.8,6.2,42.9,39.5,85.7,True,current_rolling,https://www.numbeo.com/quality-of-life/rankings_current.jsp,dataset_2_numbeo_current_quality_of_life_rankings; sourced from Numbeo current rolling city rankings page; not automated scraper in project code
162.0,Brampton,,Canada,North America,43.7315,-79.7624,161.7,133.4,44.4,68.5,58.3,9.7,41.7,36.9,59.2,False,current_rolling,https://www.numbeo.com/quality-of-life/rankings_current.jsp,dataset_2_numbeo_current_quality_of_life_rankings; sourced from Numbeo current rolling city rankings page; not automated scraper in project code
163.0,Brussels,,Belgium,Europe,50.8503,4.3517,160.6,136.1,44.2,73.6,70.1,6.7,36.4,62.2,83.8,False,current_rolling,https://www.numbeo.com/quality-of-life/rankings_current.jsp,dataset_2_numbeo_current_quality_of_life_rankings; sourced from Numbeo current rolling city rankings page; not automated scraper in project code
164.0,Queretaro (Santiago de Querétaro),,Mexico,North America,20.5888,-100.3899,160.3,61.4,62.5,74.3,46.7,9.4,33.3,39.0,94.5,False,current_rolling,https://www.numbeo.com/quality-of-life/rankings_current.jsp,dataset_2_numbeo_current_quality_of_life_rankings; sourced from Numbeo current rolling city rankings page; not automated scraper in project code
165.0,Plovdiv,,Bulgaria,Europe,42.1333,24.75,160.2,86.8,76.0,59.5,41.0,8.6,26.6,56.8,82.6,False,current_rolling,https://www.numbeo.com/quality-of-life/rankings_current.jsp,dataset_2_numbeo_current_quality_of_life_rankings; sourced from Numbeo current rolling city rankings page; not automated scraper in project code
166.0,Bratislava,,Slovakia,Europe,48.1486,17.1077,160.2,90.1,69.7,55.8,55.9,15.4,30.1,35.8,80.7,False,current_rolling,https://www.numbeo.com/quality-of-life/rankings_current.jsp,dataset_2_numbeo_current_quality_of_life_rankings; sourced from Numbeo current rolling city rankings page; not automated scraper in project code
167.0,Phoenix,AZ,United States,North America,33.45,-112.0667,160.2,149.2,46.7,66.0,73.8,4.7,32.7,58.0,53.8,False,current_rolling,https://www.numbeo.com/quality-of-life/rankings_current.jsp,dataset_2_numbeo_current_quality_of_life_rankings; sourced from Numbeo current rolling city rankings page; not automated scraper in project code
168.0,Chicago,IL,United States,North America,41.8667,-87.6333,159.9,149.8,34.7,64.8,73.4,3.6,41.7,50.3,66.1,False,current_rolling,https://www.numbeo.com/quality-of-life/rankings_current.jsp,dataset_2_numbeo_current_quality_of_life_rankings; sourced from Numbeo current rolling city rankings page; not automated scraper in project code
169.0,Cape Town,,South Africa,Africa,-33.9249,18.4241,159.7,106.9,26.4,68.9,41.7,5.7,42.4,38.3,98.2,False,current_rolling,https://www.numbeo.com/quality-of-life/rankings_current.jsp,dataset_2_numbeo_current_quality_of_life_rankings; sourced from Numbeo current rolling city rankings page; not automated scraper in project code
170.0,Singapore,,Singapore,Asia,1.3521,103.8198,159.0,117.2,77.7,71.9,88.6,23.8,41.0,32.3,57.5,False,current_rolling,https://www.numbeo.com/quality-of-life/rankings_current.jsp,dataset_2_numbeo_current_quality_of_life_rankings; sourced from Numbeo current rolling city rankings page; not automated scraper in project code
171.0,Hamilton,,Canada,North America,43.2333,-79.85,158.7,137.4,44.4,74.5,57.8,4.8,35.8,60.2,61.1,False,current_rolling,https://www.numbeo.com/quality-of-life/rankings_current.jsp,dataset_2_numbeo_current_quality_of_life_rankings; sourced from Numbeo current rolling city rankings page; not automated scraper in project code
172.0,Windhoek,,Namibia,Africa,-22.5609,17.0658,158.1,76.9,32.6,67.7,39.0,5.5,23.9,34.3,85.0,False,current_rolling,https://www.numbeo.com/quality-of-life/rankings_current.jsp,dataset_2_numbeo_current_quality_of_life_rankings; sourced from Numbeo current rolling city rankings page; not automated scraper in project code
173.0,Florence,,Italy,Europe,43.7696,11.2558,158.0,84.3,58.3,66.7,69.3,12.4,27.6,43.8,92.4,False,current_rolling,https://www.numbeo.com/quality-of-life/rankings_current.jsp,dataset_2_numbeo_current_quality_of_life_rankings; sourced from Numbeo current rolling city rankings page; not automated scraper in project code
174.0,Lisbon,,Portugal,Europe,38.7223,-9.1393,157.7,73.0,66.9,72.4,54.7,18.9,34.6,37.5,98.6,False,current_rolling,https://www.numbeo.com/quality-of-life/rankings_current.jsp,dataset_2_numbeo_current_quality_of_life_rankings; sourced from Numbeo current rolling city rankings page; not automated scraper in project code
175.0,Dublin,,Ireland,Europe,53.3333,-6.25,157.6,124.9,45.9,51.3,75.4,9.1,40.4,41.4,85.9,False,current_rolling,https://www.numbeo.com/quality-of-life/rankings_current.jsp,dataset_2_numbeo_current_quality_of_life_rankings; sourced from Numbeo current rolling city rankings page; not automated scraper in project code
176.0,Izmir,,Turkey,Middle East,38.4167,27.1667,157.6,81.2,66.7,73.3,41.8,5.7,39.9,60.0,96.9,False,current_rolling,https://www.numbeo.com/quality-of-life/rankings_current.jsp,dataset_2_numbeo_current_quality_of_life_rankings; sourced from Numbeo current rolling city rankings page; not automated scraper in project code
177.0,Winnipeg,,Canada,North America,49.8833,-97.15,157.5,129.9,39.7,68.5,58.3,4.6,31.7,35.5,24.7,False,current_rolling,https://www.numbeo.com/quality-of-life/rankings_current.jsp,dataset_2_numbeo_current_quality_of_life_rankings; sourced from Numbeo current rolling city rankings page; not automated scraper in project code
178.0,Gdansk,,Poland,Europe,54.352,18.6466,157.4,111.0,68.7,50.5,50.7,11.9,30.6,51.6,75.5,False,current_rolling,https://www.numbeo.com/quality-of-life/rankings_current.jsp,dataset_2_numbeo_current_quality_of_life_rankings; sourced from Numbeo current rolling city rankings page; not automated scraper in project code
179.0,Nicosia,,Cyprus,Europe,35.1856,33.3823,157.0,97.8,67.8,55.2,57.4,7.4,27.1,60.1,86.0,False,current_rolling,https://www.numbeo.com/quality-of-life/rankings_current.jsp,dataset_2_numbeo_current_quality_of_life_rankings; sourced from Numbeo current rolling city rankings page; not automated scraper in project code
180.0,Durban,,South Africa,Africa,-29.8833,31.0,156.0,114.2,19.5,58.3,35.9,2.8,25.5,53.2,95.6,False,current_rolling,https://www.numbeo.com/quality-of-life/rankings_current.jsp,dataset_2_numbeo_current_quality_of_life_rankings; sourced from Numbeo current rolling city rankings page; not automated scraper in project code
181.0,Warsaw,,Poland,Europe,52.2297,21.0122,155.6,111.1,74.7,58.2,52.7,11.9,34.8,59.6,74.6,False,current_rolling,https://www.numbeo.com/quality-of-life/rankings_current.jsp,dataset_2_numbeo_current_quality_of_life_rankings; sourced from Numbeo current rolling city rankings page; not automated scraper in project code
182.0,Wroclaw,,Poland,Europe,51.1079,17.0385,155.5,108.7,74.8,57.5,50.0,11.1,34.8,61.6,78.4,False,current_rolling,https://www.numbeo.com/quality-of-life/rankings_current.jsp,dataset_2_numbeo_current_quality_of_life_rankings; sourced from Numbeo current rolling city rankings page; not automated scraper in project code
183.0,Regina,,Canada,North America,50.4167,-104.65,155.4,127.1,46.5,65.4,61.8,4.0,23.7,41.4,14.3,False,current_rolling,https://www.numbeo.com/quality-of-life/rankings_current.jsp,dataset_2_numbeo_current_quality_of_life_rankings; sourced from Numbeo current rolling city rankings page; not automated scraper in project code
184.0,Shenzhen,,China,Asia,22.5431,114.0579,154.8,124.3,75.5,64.2,37.7,28.3,33.7,55.1,81.8,False,current_rolling,https://www.numbeo.com/quality-of-life/rankings_current.jsp,dataset_2_numbeo_current_quality_of_life_rankings; sourced from Numbeo current rolling city rankings page; not automated scraper in project code
185.0,Lodz,,Poland,Europe,51.7592,19.456,154.0,108.1,62.4,58.6,47.8,8.7,35.6,57.4,77.0,False,current_rolling,https://www.numbeo.com/quality-of-life/rankings_current.jsp,dataset_2_numbeo_current_quality_of_life_rankings; sourced from Numbeo current rolling city rankings page; not automated scraper in project code
186.0,Cuenca,,Ecuador,South America,-2.9,-79.0,153.8,56.0,54.0,79.9,29.8,9.5,34.6,46.0,98.4,False,current_rolling,https://www.numbeo.com/quality-of-life/rankings_current.jsp,dataset_2_numbeo_current_quality_of_life_rankings; sourced from Numbeo current rolling city rankings page; not automated scraper in project code
187.0,Taipei,,Taiwan,Asia,25.033,121.5654,152.9,94.6,83.3,87.2,54.3,34.4,34.5,48.7,84.4,False,current_rolling,https://www.numbeo.com/quality-of-life/rankings_current.jsp,dataset_2_numbeo_current_quality_of_life_rankings; sourced from Numbeo current rolling city rankings page; not automated scraper in project code
188.0,Rome,,Italy,Europe,41.9028,12.4964,152.5,96.4,53.2,64.9,59.9,14.6,35.1,47.6,93.7,True,current_rolling,https://www.numbeo.com/quality-of-life/rankings_current.jsp,dataset_2_numbeo_current_quality_of_life_rankings; sourced from Numbeo current rolling city rankings page; not automated scraper in project code
189.0,Barcelona,,Spain,Europe,41.3833,2.1833,152.2,102.8,48.0,77.0,60.2,12.9,29.6,62.8,95.7,True,current_rolling,https://www.numbeo.com/quality-of-life/rankings_current.jsp,dataset_2_numbeo_current_quality_of_life_rankings; sourced from Numbeo current rolling city rankings page; not automated scraper in project code
190.0,Brasilia,,Brazil,South America,-15.7833,-47.9167,151.7,72.0,41.3,52.7,35.6,12.9,30.6,30.0,99.0,False,current_rolling,https://www.numbeo.com/quality-of-life/rankings_current.jsp,dataset_2_numbeo_current_quality_of_life_rankings; sourced from Numbeo current rolling city rankings page; not automated scraper in project code
191.0,Sharjah,,United Arab Emirates,Middle East,25.3333,55.4333,151.2,121.9,84.7,60.3,49.6,12.7,57.2,48.2,43.3,False,current_rolling,https://www.numbeo.com/quality-of-life/rankings_current.jsp,dataset_2_numbeo_current_quality_of_life_rankings; sourced from Numbeo current rolling city rankings page; not automated scraper in project code
192.0,Krakow (Cracow),,Poland,Europe,50.0647,19.945,150.5,111.5,75.2,58.3,50.4,12.6,31.1,69.8,73.9,False,current_rolling,https://www.numbeo.com/quality-of-life/rankings_current.jsp,dataset_2_numbeo_current_quality_of_life_rankings; sourced from Numbeo current rolling city rankings page; not automated scraper in project code
193.0,Kaliningrad,,Russia,Europe,54.7104,20.4522,150.0,60.6,70.2,69.9,48.3,14.5,29.2,41.9,73.7,False,current_rolling,https://www.numbeo.com/quality-of-life/rankings_current.jsp,dataset_2_numbeo_current_quality_of_life_rankings; sourced from Numbeo current rolling city rankings page; not automated scraper in project code
194.0,Varna,,Bulgaria,Europe,43.2,27.95,149.9,81.0,65.7,63.5,46.5,11.3,28.7,58.3,85.1,False,current_rolling,https://www.numbeo.com/quality-of-life/rankings_current.jsp,dataset_2_numbeo_current_quality_of_life_rankings; sourced from Numbeo current rolling city rankings page; not automated scraper in project code
195.0,Bologna,,Italy,Europe,44.5,11.3333,149.6,94.8,51.0,76.1,67.7,10.8,32.5,59.6,88.1,False,current_rolling,https://www.numbeo.com/quality-of-life/rankings_current.jsp,dataset_2_numbeo_current_quality_of_life_rankings; sourced from Numbeo current rolling city rankings page; not automated scraper in project code
196.0,Nizhny Novgorod,,Russia,Europe,56.2965,43.9361,148.6,66.1,72.0,73.9,43.2,17.7,27.1,34.4,45.5,False,current_rolling,https://www.numbeo.com/quality-of-life/rankings_current.jsp,dataset_2_numbeo_current_quality_of_life_rankings; sourced from Numbeo current rolling city rankings page; not automated scraper in project code
197.0,Florianopolis,,Brazil,South America,-27.5949,-48.5482,148.4,69.4,55.0,60.4,37.6,12.1,41.6,40.1,97.0,False,current_rolling,https://www.numbeo.com/quality-of-life/rankings_current.jsp,dataset_2_numbeo_current_quality_of_life_rankings; sourced from Numbeo current rolling city rankings page; not automated scraper in project code
198.0,Curitiba,,Brazil,South America,-25.4167,-49.25,148.1,59.3,40.4,67.0,35.3,15.3,32.8,30.9,99.6,False,current_rolling,https://www.numbeo.com/quality-of-life/rankings_current.jsp,dataset_2_numbeo_current_quality_of_life_rankings; sourced from Numbeo current rolling city rankings page; not automated scraper in project code
199.0,Ankara,,Turkey,Middle East,39.9333,32.8667,147.8,77.3,60.6,70.0,40.9,6.7,36.8,64.2,91.5,False,current_rolling,https://www.numbeo.com/quality-of-life/rankings_current.jsp,dataset_2_numbeo_current_quality_of_life_rankings; sourced from Numbeo current rolling city rankings page; not automated scraper in project code
200.0,Turin,,Italy,Europe,45.05,7.6667,147.6,103.9,48.0,66.0,61.7,8.4,27.6,66.8,85.7,False,current_rolling,https://www.numbeo.com/quality-of-life/rankings_current.jsp,dataset_2_numbeo_current_quality_of_life_rankings; sourced from Numbeo current rolling city rankings page; not automated scraper in project code
201.0,London,,United Kingdom,Europe,51.5167,-0.0833,147.1,129.9,44.8,69.6,87.4,15.0,44.7,57.6,88.3,True,current_rolling,https://www.numbeo.com/quality-of-life/rankings_current.jsp,dataset_2_numbeo_current_quality_of_life_rankings; sourced from Numbeo current rolling city rankings page; not automated scraper in project code
202.0,Paris,,France,Europe,48.8667,2.3333,146.1,129.9,42.1,76.9,77.8,16.7,41.1,63.1,88.4,True,current_rolling,https://www.numbeo.com/quality-of-life/rankings_current.jsp,dataset_2_numbeo_current_quality_of_life_rankings; sourced from Numbeo current rolling city rankings page; not automated scraper in project code
203.0,Pretoria,,South Africa,Africa,-25.75,28.2,145.5,111.6,18.3,66.5,41.5,2.7,43.7,57.1,95.8,False,current_rolling,https://www.numbeo.com/quality-of-life/rankings_current.jsp,dataset_2_numbeo_current_quality_of_life_rankings; sourced from Numbeo current rolling city rankings page; not automated scraper in project code
204.0,Mangalore,,India,Asia,12.9141,74.856,145.2,55.1,74.4,62.0,17.2,8.1,35.4,50.3,66.7,False,current_rolling,https://www.numbeo.com/quality-of-life/rankings_current.jsp,dataset_2_numbeo_current_quality_of_life_rankings; sourced from Numbeo current rolling city rankings page; not automated scraper in project code
205.0,Novi Sad,,Serbia,Europe,45.2671,19.8335,144.5,74.0,61.6,50.2,45.5,14.9,18.0,53.4,84.0,False,current_rolling,https://www.numbeo.com/quality-of-life/rankings_current.jsp,dataset_2_numbeo_current_quality_of_life_rankings; sourced from Numbeo current rolling city rankings page; not automated scraper in project code
206.0,San Juan,,Puerto Rico,North America,18.4667,-66.1167,144.4,113.1,33.2,63.1,69.2,9.6,34.5,48.9,71.2,False,current_rolling,https://www.numbeo.com/quality-of-life/rankings_current.jsp,dataset_2_numbeo_current_quality_of_life_rankings; sourced from Numbeo current rolling city rankings page; not automated scraper in project code
207.0,Guangzhou,,China,Asia,23.1167,113.25,144.3,112.1,71.6,67.2,35.5,23.4,36.0,67.5,80.3,False,current_rolling,https://www.numbeo.com/quality-of-life/rankings_current.jsp,dataset_2_numbeo_current_quality_of_life_rankings; sourced from Numbeo current rolling city rankings page; not automated scraper in project code
208.0,Johannesburg,,South Africa,Africa,-26.1667,28.0333,144.1,121.4,19.2,60.5,41.8,2.7,40.7,62.1,91.4,False,current_rolling,https://www.numbeo.com/quality-of-life/rankings_current.jsp,dataset_2_numbeo_current_quality_of_life_rankings; sourced from Numbeo current rolling city rankings page; not automated scraper in project code
209.0,Sofia,,Bulgaria,Europe,42.6833,23.3167,143.9,102.5,61.4,58.5,49.1,11.3,30.5,67.6,76.0,False,current_rolling,https://www.numbeo.com/quality-of-life/rankings_current.jsp,dataset_2_numbeo_current_quality_of_life_rankings; sourced from Numbeo current rolling city rankings page; not automated scraper in project code
210.0,Detroit,MI,United States,North America,42.3333,-83.05,143.3,141.0,27.2,62.6,66.6,3.8,43.7,62.1,66.0,False,current_rolling,https://www.numbeo.com/quality-of-life/rankings_current.jsp,dataset_2_numbeo_current_quality_of_life_rankings; sourced from Numbeo current rolling city rankings page; not automated scraper in project code
211.0,Budapest,,Hungary,Europe,47.5,19.0833,142.9,94.6,66.4,52.1,54.7,15.0,38.7,52.9,78.4,False,current_rolling,https://www.numbeo.com/quality-of-life/rankings_current.jsp,dataset_2_numbeo_current_quality_of_life_rankings; sourced from Numbeo current rolling city rankings page; not automated scraper in project code
212.0,Iasi,,Romania,Europe,47.15,27.6333,142.6,87.2,65.2,55.9,40.1,10.7,32.8,60.7,73.0,False,current_rolling,https://www.numbeo.com/quality-of-life/rankings_current.jsp,dataset_2_numbeo_current_quality_of_life_rankings; sourced from Numbeo current rolling city rankings page; not automated scraper in project code
213.0,Montevideo,,Uruguay,South America,-34.8833,-56.1833,142.3,72.1,43.2,68.5,56.4,11.4,41.0,46.1,98.0,False,current_rolling,https://www.numbeo.com/quality-of-life/rankings_current.jsp,dataset_2_numbeo_current_quality_of_life_rankings; sourced from Numbeo current rolling city rankings page; not automated scraper in project code
214.0,Minsk,,Belarus,Europe,53.9006,27.559,141.7,82.2,50.7,50.3,35.3,10.6,31.4,42.5,64.4,False,current_rolling,https://www.numbeo.com/quality-of-life/rankings_current.jsp,dataset_2_numbeo_current_quality_of_life_rankings; sourced from Numbeo current rolling city rankings page; not automated scraper in project code
215.0,Islamabad,,Pakistan,Asia,33.7,73.1667,141.2,48.3,69.3,63.7,24.1,15.8,35.9,41.5,76.9,False,current_rolling,https://www.numbeo.com/quality-of-life/rankings_current.jsp,dataset_2_numbeo_current_quality_of_life_rankings; sourced from Numbeo current rolling city rankings page; not automated scraper in project code
216.0,Kuala Lumpur,,Malaysia,Asia,3.0167,101.7,140.9,126.2,40.8,69.5,38.7,8.7,41.6,64.8,56.6,False,current_rolling,https://www.numbeo.com/quality-of-life/rankings_current.jsp,dataset_2_numbeo_current_quality_of_life_rankings; sourced from Numbeo current rolling city rankings page; not automated scraper in project code
217.0,Chiang Mai,,Thailand,Asia,18.8,98.9833,139.6,59.0,78.0,84.7,32.3,13.9,26.2,77.8,75.9,False,current_rolling,https://www.numbeo.com/quality-of-life/rankings_current.jsp,dataset_2_numbeo_current_quality_of_life_rankings; sourced from Numbeo current rolling city rankings page; not automated scraper in project code
218.0,Bangalore,,India,Asia,12.9667,77.5833,138.6,127.2,46.3,65.4,20.7,7.5,53.6,82.5,89.4,False,current_rolling,https://www.numbeo.com/quality-of-life/rankings_current.jsp,dataset_2_numbeo_current_quality_of_life_rankings; sourced from Numbeo current rolling city rankings page; not automated scraper in project code
219.0,Banja Luka,,Bosnia And Herzegovina,Europe,44.7722,17.191,138.4,68.0,65.1,46.1,43.4,14.4,22.4,56.1,82.8,False,current_rolling,https://www.numbeo.com/quality-of-life/rankings_current.jsp,dataset_2_numbeo_current_quality_of_life_rankings; sourced from Numbeo current rolling city rankings page; not automated scraper in project code
220.0,Tashkent,,Uzbekistan,Asia,41.2995,69.2401,138.0,59.2,74.1,65.8,29.3,11.3,35.8,60.2,69.8,False,current_rolling,https://www.numbeo.com/quality-of-life/rankings_current.jsp,dataset_2_numbeo_current_quality_of_life_rankings; sourced from Numbeo current rolling city rankings page; not automated scraper in project code
221.0,Lviv,,Ukraine,Europe,49.8397,24.0297,138.0,59.6,62.9,61.7,30.5,13.5,31.9,48.9,69.6,False,current_rolling,https://www.numbeo.com/quality-of-life/rankings_current.jsp,dataset_2_numbeo_current_quality_of_life_rankings; sourced from Numbeo current rolling city rankings page; not automated scraper in project code
222.0,Chennai,,India,Asia,13.0827,80.2707,137.9,114.6,59.8,69.8,19.1,9.0,46.6,74.0,53.2,False,current_rolling,https://www.numbeo.com/quality-of-life/rankings_current.jsp,dataset_2_numbeo_current_quality_of_life_rankings; sourced from Numbeo current rolling city rankings page; not automated scraper in project code
223.0,Kuwait City,,Kuwait,Middle East,29.3333,47.9833,137.9,125.6,71.2,58.3,45.2,9.2,33.7,71.1,20.2,False,current_rolling,https://www.numbeo.com/quality-of-life/rankings_current.jsp,dataset_2_numbeo_current_quality_of_life_rankings; sourced from Numbeo current rolling city rankings page; not automated scraper in project code
224.0,Bucharest,,Romania,Europe,44.4268,26.1025,136.9,98.4,71.6,55.3,44.9,10.7,41.0,74.8,75.6,False,current_rolling,https://www.numbeo.com/quality-of-life/rankings_current.jsp,dataset_2_numbeo_current_quality_of_life_rankings; sourced from Numbeo current rolling city rankings page; not automated scraper in project code
225.0,Campinas,,Brazil,South America,-22.9056,-47.0608,136.5,55.7,35.2,61.7,36.2,13.0,27.3,46.1,98.9,False,current_rolling,https://www.numbeo.com/quality-of-life/rankings_current.jsp,dataset_2_numbeo_current_quality_of_life_rankings; sourced from Numbeo current rolling city rankings page; not automated scraper in project code
226.0,Coimbatore,,India,Asia,11.0168,76.9558,135.9,76.6,62.0,68.8,16.5,12.0,46.4,63.7,78.1,False,current_rolling,https://www.numbeo.com/quality-of-life/rankings_current.jsp,dataset_2_numbeo_current_quality_of_life_rankings; sourced from Numbeo current rolling city rankings page; not automated scraper in project code
227.0,New York,NY,United States,North America,40.75,-74.0,135.4,105.5,49.1,62.9,100.0,12.7,43.3,58.1,79.7,True,current_rolling,https://www.numbeo.com/quality-of-life/rankings_current.jsp,dataset_2_numbeo_current_quality_of_life_rankings; sourced from Numbeo current rolling city rankings page; not automated scraper in project code
228.0,Thessaloniki,,Greece,Europe,40.6333,22.9667,134.4,68.9,48.1,57.3,55.0,14.1,27.9,54.2,88.4,False,current_rolling,https://www.numbeo.com/quality-of-life/rankings_current.jsp,dataset_2_numbeo_current_quality_of_life_rankings; sourced from Numbeo current rolling city rankings page; not automated scraper in project code
229.0,Jaipur,,India,Asia,26.8833,75.8333,134.1,64.4,64.3,72.9,18.4,8.7,42.1,61.1,57.8,False,current_rolling,https://www.numbeo.com/quality-of-life/rankings_current.jsp,dataset_2_numbeo_current_quality_of_life_rankings; sourced from Numbeo current rolling city rankings page; not automated scraper in project code
230.0,Ahmedabad,,India,Asia,23.0,72.6667,133.1,81.1,68.5,67.8,20.2,7.1,39.9,72.2,49.3,False,current_rolling,https://www.numbeo.com/quality-of-life/rankings_current.jsp,dataset_2_numbeo_current_quality_of_life_rankings; sourced from Numbeo current rolling city rankings page; not automated scraper in project code
231.0,Shanghai,,China,Asia,31.2333,121.4667,132.9,109.9,73.6,67.8,39.3,31.0,45.1,68.0,83.6,False,current_rolling,https://www.numbeo.com/quality-of-life/rankings_current.jsp,dataset_2_numbeo_current_quality_of_life_rankings; sourced from Numbeo current rolling city rankings page; not automated scraper in project code
232.0,Sarajevo,,Bosnia And Herzegovina,Europe,43.8563,18.4131,132.5,75.5,56.0,59.1,43.4,14.1,26.9,65.2,78.2,False,current_rolling,https://www.numbeo.com/quality-of-life/rankings_current.jsp,dataset_2_numbeo_current_quality_of_life_rankings; sourced from Numbeo current rolling city rankings page; not automated scraper in project code
233.0,Los Angeles,CA,United States,North America,34.05,-118.2333,131.9,110.2,46.1,61.9,81.8,9.7,57.1,68.3,95.5,False,current_rolling,https://www.numbeo.com/quality-of-life/rankings_current.jsp,dataset_2_numbeo_current_quality_of_life_rankings; sourced from Numbeo current rolling city rankings page; not automated scraper in project code
234.0,Athens,,Greece,Europe,37.9838,23.7275,131.8,73.9,45.0,58.4,56.5,14.1,37.1,55.6,95.2,False,current_rolling,https://www.numbeo.com/quality-of-life/rankings_current.jsp,dataset_2_numbeo_current_quality_of_life_rankings; sourced from Numbeo current rolling city rankings page; not automated scraper in project code
235.0,Astana (Nur-Sultan),,Kazakhstan,Asia,51.1694,71.4491,131.0,71.7,66.7,67.3,31.8,7.4,35.4,55.1,21.3,False,current_rolling,https://www.numbeo.com/quality-of-life/rankings_current.jsp,dataset_2_numbeo_current_quality_of_life_rankings; sourced from Numbeo current rolling city rankings page; not automated scraper in project code
236.0,Noida,,India,Asia,28.5355,77.391,129.3,129.9,44.3,67.5,20.1,6.6,44.4,91.1,58.9,False,current_rolling,https://www.numbeo.com/quality-of-life/rankings_current.jsp,dataset_2_numbeo_current_quality_of_life_rankings; sourced from Numbeo current rolling city rankings page; not automated scraper in project code
237.0,Chisinau,,Moldova,Europe,47.0105,28.8638,128.7,66.6,58.6,51.7,38.1,13.0,28.8,63.5,76.9,False,current_rolling,https://www.numbeo.com/quality-of-life/rankings_current.jsp,dataset_2_numbeo_current_quality_of_life_rankings; sourced from Numbeo current rolling city rankings page; not automated scraper in project code
238.0,Hong Kong,,Hong Kong (China),Asia,22.3193,114.1694,128.4,102.4,78.3,66.5,73.9,33.6,41.9,66.3,83.6,False,current_rolling,https://www.numbeo.com/quality-of-life/rankings_current.jsp,dataset_2_numbeo_current_quality_of_life_rankings; sourced from Numbeo current rolling city rankings page; not automated scraper in project code
239.0,Istanbul,,Turkey,Middle East,41.0167,28.9667,127.7,69.9,51.9,70.1,45.3,10.6,50.7,67.3,93.0,False,current_rolling,https://www.numbeo.com/quality-of-life/rankings_current.jsp,dataset_2_numbeo_current_quality_of_life_rankings; sourced from Numbeo current rolling city rankings page; not automated scraper in project code
240.0,Moscow,,Russia,Europe,55.7558,37.6173,127.7,93.8,64.9,67.9,55.0,20.9,50.5,54.7,55.8,False,current_rolling,https://www.numbeo.com/quality-of-life/rankings_current.jsp,dataset_2_numbeo_current_quality_of_life_rankings; sourced from Numbeo current rolling city rankings page; not automated scraper in project code
241.0,Krasnodar,,Russia,Europe,45.0393,38.9872,126.7,66.6,66.1,50.3,44.1,12.2,51.8,55.2,78.7,False,current_rolling,https://www.numbeo.com/quality-of-life/rankings_current.jsp,dataset_2_numbeo_current_quality_of_life_rankings; sourced from Numbeo current rolling city rankings page; not automated scraper in project code
242.0,Belo Horizonte,,Brazil,South America,-19.9,-43.9,126.7,55.0,40.6,64.4,34.7,13.9,43.1,53.0,98.5,False,current_rolling,https://www.numbeo.com/quality-of-life/rankings_current.jsp,dataset_2_numbeo_current_quality_of_life_rankings; sourced from Numbeo current rolling city rankings page; not automated scraper in project code
243.0,Yerevan,,Armenia,Asia,40.1872,44.5152,125.9,47.4,78.0,60.1,42.1,17.2,30.5,60.9,63.4,False,current_rolling,https://www.numbeo.com/quality-of-life/rankings_current.jsp,dataset_2_numbeo_current_quality_of_life_rankings; sourced from Numbeo current rolling city rankings page; not automated scraper in project code
244.0,Belgrade,,Serbia,Europe,44.7866,20.4489,125.6,76.5,62.3,53.2,48.1,16.6,36.5,68.7,84.1,False,current_rolling,https://www.numbeo.com/quality-of-life/rankings_current.jsp,dataset_2_numbeo_current_quality_of_life_rankings; sourced from Numbeo current rolling city rankings page; not automated scraper in project code
245.0,Thiruvananthapuram,,India,Asia,8.5241,76.9366,125.4,46.4,61.0,63.4,18.1,10.7,40.9,56.4,64.8,False,current_rolling,https://www.numbeo.com/quality-of-life/rankings_current.jsp,dataset_2_numbeo_current_quality_of_life_rankings; sourced from Numbeo current rolling city rankings page; not automated scraper in project code
246.0,Milan,,Italy,Europe,45.4642,9.19,124.7,82.4,46.1,69.9,73.5,18.0,35.9,68.1,88.1,True,current_rolling,https://www.numbeo.com/quality-of-life/rankings_current.jsp,dataset_2_numbeo_current_quality_of_life_rankings; sourced from Numbeo current rolling city rankings page; not automated scraper in project code
247.0,Kharkiv,,Ukraine,Europe,49.9935,36.2304,124.5,62.0,52.8,49.2,26.0,8.5,38.2,56.9,65.4,False,current_rolling,https://www.numbeo.com/quality-of-life/rankings_current.jsp,dataset_2_numbeo_current_quality_of_life_rankings; sourced from Numbeo current rolling city rankings page; not automated scraper in project code
248.0,Saint Petersburg,,Russia,Europe,59.9311,30.3609,124.4,82.5,62.5,61.6,45.5,15.0,49.1,60.9,60.6,False,current_rolling,https://www.numbeo.com/quality-of-life/rankings_current.jsp,dataset_2_numbeo_current_quality_of_life_rankings; sourced from Numbeo current rolling city rankings page; not automated scraper in project code
249.0,Quito,,Ecuador,South America,-0.2167,-78.5,124.1,55.1,36.9,69.1,34.0,10.1,41.0,64.5,99.0,False,current_rolling,https://www.numbeo.com/quality-of-life/rankings_current.jsp,dataset_2_numbeo_current_quality_of_life_rankings; sourced from Numbeo current rolling city rankings page; not automated scraper in project code
250.0,Kazan,,Russia,Europe,55.8304,49.0661,123.8,68.8,69.9,68.7,43.3,18.4,35.0,58.7,39.6,False,current_rolling,https://www.numbeo.com/quality-of-life/rankings_current.jsp,dataset_2_numbeo_current_quality_of_life_rankings; sourced from Numbeo current rolling city rankings page; not automated scraper in project code
251.0,Amman,,Jordan,Middle East,31.95,35.9333,123.0,53.2,62.7,65.6,43.5,9.8,40.6,76.6,89.0,False,current_rolling,https://www.numbeo.com/quality-of-life/rankings_current.jsp,dataset_2_numbeo_current_quality_of_life_rankings; sourced from Numbeo current rolling city rankings page; not automated scraper in project code
252.0,San Jose,,Costa Rica,North America,9.9333,-84.0833,122.7,54.3,44.1,62.9,57.7,9.6,63.3,48.5,99.5,False,current_rolling,https://www.numbeo.com/quality-of-life/rankings_current.jsp,dataset_2_numbeo_current_quality_of_life_rankings; sourced from Numbeo current rolling city rankings page; not automated scraper in project code
253.0,Gurgaon,,India,Asia,28.4595,77.0266,122.5,116.2,45.9,65.1,23.5,11.6,37.0,90.8,59.9,False,current_rolling,https://www.numbeo.com/quality-of-life/rankings_current.jsp,dataset_2_numbeo_current_quality_of_life_rankings; sourced from Numbeo current rolling city rankings page; not automated scraper in project code
254.0,Naples,,Italy,Europe,40.8518,14.2681,122.0,92.3,37.7,59.6,59.3,9.7,43.8,77.9,95.8,False,current_rolling,https://www.numbeo.com/quality-of-life/rankings_current.jsp,dataset_2_numbeo_current_quality_of_life_rankings; sourced from Numbeo current rolling city rankings page; not automated scraper in project code
255.0,Porto Alegre,,Brazil,South America,-30.05,-51.2167,122.0,48.1,29.5,64.7,35.0,13.7,31.3,56.9,98.7,False,current_rolling,https://www.numbeo.com/quality-of-life/rankings_current.jsp,dataset_2_numbeo_current_quality_of_life_rankings; sourced from Numbeo current rolling city rankings page; not automated scraper in project code
256.0,Tbilisi,,Georgia,Asia,41.7151,44.8271,121.5,50.2,74.0,55.4,37.6,15.1,38.0,71.9,84.2,False,current_rolling,https://www.numbeo.com/quality-of-life/rankings_current.jsp,dataset_2_numbeo_current_quality_of_life_rankings; sourced from Numbeo current rolling city rankings page; not automated scraper in project code
257.0,Monterrey,,Mexico,North America,25.6667,-100.3167,121.0,62.5,52.1,68.8,49.6,16.2,31.9,70.9,80.4,False,current_rolling,https://www.numbeo.com/quality-of-life/rankings_current.jsp,dataset_2_numbeo_current_quality_of_life_rankings; sourced from Numbeo current rolling city rankings page; not automated scraper in project code
258.0,Kiev (Kyiv),,Ukraine,Europe,50.4501,30.5234,120.9,68.3,54.4,58.3,32.0,12.4,43.2,64.6,70.0,False,current_rolling,https://www.numbeo.com/quality-of-life/rankings_current.jsp,dataset_2_numbeo_current_quality_of_life_rankings; sourced from Numbeo current rolling city rankings page; not automated scraper in project code
259.0,Guadalajara,,Mexico,North America,20.6667,-103.3333,120.7,52.2,37.6,78.6,43.2,16.7,41.6,59.3,92.8,False,current_rolling,https://www.numbeo.com/quality-of-life/rankings_current.jsp,dataset_2_numbeo_current_quality_of_life_rankings; sourced from Numbeo current rolling city rankings page; not automated scraper in project code
260.0,Medellin,,Colombia,South America,6.23083,-75.59056,120.4,41.0,45.9,78.9,37.1,19.4,37.8,62.5,99.8,False,current_rolling,https://www.numbeo.com/quality-of-life/rankings_current.jsp,dataset_2_numbeo_current_quality_of_life_rankings; sourced from Numbeo current rolling city rankings page; not automated scraper in project code
261.0,Beijing,,China,Asia,39.9333,116.4,120.4,105.3,74.6,70.4,37.6,29.9,43.2,76.7,57.6,False,current_rolling,https://www.numbeo.com/quality-of-life/rankings_current.jsp,dataset_2_numbeo_current_quality_of_life_rankings; sourced from Numbeo current rolling city rankings page; not automated scraper in project code
262.0,Panama City,,Panama,North America,8.95,-79.5333,120.0,53.1,53.5,60.9,47.7,12.6,32.8,61.9,67.8,False,current_rolling,https://www.numbeo.com/quality-of-life/rankings_current.jsp,dataset_2_numbeo_current_quality_of_life_rankings; sourced from Numbeo current rolling city rankings page; not automated scraper in project code
263.0,Skopje,,North Macedonia,Europe,41.9981,21.4254,119.8,76.0,54.0,55.0,37.7,12.9,27.2,82.2,76.3,False,current_rolling,https://www.numbeo.com/quality-of-life/rankings_current.jsp,dataset_2_numbeo_current_quality_of_life_rankings; sourced from Numbeo current rolling city rankings page; not automated scraper in project code
264.0,Buenos Aires,,Argentina,South America,-34.6,-58.45,118.7,47.3,37.0,68.0,50.8,14.4,49.9,51.3,98.3,False,current_rolling,https://www.numbeo.com/quality-of-life/rankings_current.jsp,dataset_2_numbeo_current_quality_of_life_rankings; sourced from Numbeo current rolling city rankings page; not automated scraper in project code
265.0,Baku,,Azerbaijan,Asia,40.4093,49.8671,116.2,49.0,70.0,48.2,32.6,16.5,37.9,74.1,91.4,False,current_rolling,https://www.numbeo.com/quality-of-life/rankings_current.jsp,dataset_2_numbeo_current_quality_of_life_rankings; sourced from Numbeo current rolling city rankings page; not automated scraper in project code
266.0,Rostov-on-Don (Rostov-na-donu),,Russia,Europe,47.2357,39.7015,114.6,75.2,47.7,51.5,38.9,12.0,42.0,71.5,73.9,False,current_rolling,https://www.numbeo.com/quality-of-life/rankings_current.jsp,dataset_2_numbeo_current_quality_of_life_rankings; sourced from Numbeo current rolling city rankings page; not automated scraper in project code
267.0,Odessa (Odesa),,Ukraine,Europe,46.4825,30.7233,114.6,52.0,45.2,51.4,29.4,13.1,36.6,62.1,79.0,False,current_rolling,https://www.numbeo.com/quality-of-life/rankings_current.jsp,dataset_2_numbeo_current_quality_of_life_rankings; sourced from Numbeo current rolling city rankings page; not automated scraper in project code
268.0,Santiago,,Chile,South America,-33.4489,-70.6693,112.6,61.8,35.9,65.7,43.4,16.5,36.9,70.7,90.2,False,current_rolling,https://www.numbeo.com/quality-of-life/rankings_current.jsp,dataset_2_numbeo_current_quality_of_life_rankings; sourced from Numbeo current rolling city rankings page; not automated scraper in project code
269.0,Tunis,,Tunisia,Africa,36.8,10.2,110.6,40.9,51.2,56.0,30.6,14.0,37.0,74.0,93.2,False,current_rolling,https://www.numbeo.com/quality-of-life/rankings_current.jsp,dataset_2_numbeo_current_quality_of_life_rankings; sourced from Numbeo current rolling city rankings page; not automated scraper in project code
270.0,Kolkata,,India,Asia,22.5726,88.3639,107.7,76.6,53.1,60.1,18.5,10.2,59.4,78.2,60.9,False,current_rolling,https://www.numbeo.com/quality-of-life/rankings_current.jsp,dataset_2_numbeo_current_quality_of_life_rankings; sourced from Numbeo current rolling city rankings page; not automated scraper in project code
271.0,Bogota,,Colombia,South America,4.6,-74.0833,106.4,55.0,33.4,66.0,35.7,15.6,51.4,69.4,97.1,False,current_rolling,https://www.numbeo.com/quality-of-life/rankings_current.jsp,dataset_2_numbeo_current_quality_of_life_rankings; sourced from Numbeo current rolling city rankings page; not automated scraper in project code
272.0,Dnipro,,Ukraine,Europe,48.4647,35.0462,105.9,52.7,46.3,53.9,30.4,9.5,33.5,80.6,69.5,False,current_rolling,https://www.numbeo.com/quality-of-life/rankings_current.jsp,dataset_2_numbeo_current_quality_of_life_rankings; sourced from Numbeo current rolling city rankings page; not automated scraper in project code
273.0,Pattaya,,Thailand,Asia,12.9236,100.8825,103.1,37.3,54.9,75.1,37.3,21.5,21.9,87.0,75.0,False,current_rolling,https://www.numbeo.com/quality-of-life/rankings_current.jsp,dataset_2_numbeo_current_quality_of_life_rankings; sourced from Numbeo current rolling city rankings page; not automated scraper in project code
274.0,Yekaterinburg,,Russia,Europe,56.8389,60.6057,101.2,65.6,56.6,53.6,44.9,11.5,39.3,69.6,21.3,False,current_rolling,https://www.numbeo.com/quality-of-life/rankings_current.jsp,dataset_2_numbeo_current_quality_of_life_rankings; sourced from Numbeo current rolling city rankings page; not automated scraper in project code
275.0,Sao Paulo,,Brazil,South America,-23.5333,-46.6167,101.1,62.2,30.2,60.3,41.2,13.7,51.2,78.9,99.0,False,current_rolling,https://www.numbeo.com/quality-of-life/rankings_current.jsp,dataset_2_numbeo_current_quality_of_life_rankings; sourced from Numbeo current rolling city rankings page; not automated scraper in project code
276.0,Davao,,Philippines,Asia,7.0667,125.6,100.8,23.7,71.2,73.6,30.1,37.9,27.4,58.0,58.6,False,current_rolling,https://www.numbeo.com/quality-of-life/rankings_current.jsp,dataset_2_numbeo_current_quality_of_life_rankings; sourced from Numbeo current rolling city rankings page; not automated scraper in project code
277.0,Lahore,,Pakistan,Asia,31.5667,74.3667,100.8,30.6,63.9,63.6,20.8,19.3,34.9,78.7,67.6,False,current_rolling,https://www.numbeo.com/quality-of-life/rankings_current.jsp,dataset_2_numbeo_current_quality_of_life_rankings; sourced from Numbeo current rolling city rankings page; not automated scraper in project code
278.0,Almaty,,Kazakhstan,Asia,43.222,76.8512,100.7,59.3,47.1,50.9,37.6,11.0,38.2,78.8,58.3,False,current_rolling,https://www.numbeo.com/quality-of-life/rankings_current.jsp,dataset_2_numbeo_current_quality_of_life_rankings; sourced from Numbeo current rolling city rankings page; not automated scraper in project code
279.0,Casablanca,,Morocco,Africa,33.6,-7.6167,100.2,53.3,44.8,44.5,34.8,13.8,44.0,82.1,98.1,False,current_rolling,https://www.numbeo.com/quality-of-life/rankings_current.jsp,dataset_2_numbeo_current_quality_of_life_rankings; sourced from Numbeo current rolling city rankings page; not automated scraper in project code
280.0,Mexico City,,Mexico,North America,19.4,-99.15,100.1,60.8,33.5,66.1,48.1,13.5,52.7,80.5,92.4,False,current_rolling,https://www.numbeo.com/quality-of-life/rankings_current.jsp,dataset_2_numbeo_current_quality_of_life_rankings; sourced from Numbeo current rolling city rankings page; not automated scraper in project code
281.0,Novosibirsk,,Russia,Europe,55.0084,82.9357,98.4,65.9,54.7,56.1,42.0,13.3,40.9,67.6,16.1,False,current_rolling,https://www.numbeo.com/quality-of-life/rankings_current.jsp,dataset_2_numbeo_current_quality_of_life_rankings; sourced from Numbeo current rolling city rankings page; not automated scraper in project code
282.0,Nairobi,,Kenya,Africa,-1.2833,36.8167,98.4,41.1,40.9,63.2,32.1,14.0,53.2,79.8,99.8,False,current_rolling,https://www.numbeo.com/quality-of-life/rankings_current.jsp,dataset_2_numbeo_current_quality_of_life_rankings; sourced from Numbeo current rolling city rankings page; not automated scraper in project code
283.0,Tirana,,Albania,Europe,41.3333,19.8333,97.8,53.3,59.9,47.3,48.5,18.8,38.4,87.5,86.4,False,current_rolling,https://www.numbeo.com/quality-of-life/rankings_current.jsp,dataset_2_numbeo_current_quality_of_life_rankings; sourced from Numbeo current rolling city rankings page; not automated scraper in project code
284.0,Lima,,Peru,South America,-12.05,-77.05,92.5,53.3,29.9,58.8,34.9,14.5,51.2,84.4,97.7,False,current_rolling,https://www.numbeo.com/quality-of-life/rankings_current.jsp,dataset_2_numbeo_current_quality_of_life_rankings; sourced from Numbeo current rolling city rankings page; not automated scraper in project code
285.0,Santo Domingo,,Dominican Republic,North America,18.4667,-69.9,91.9,46.8,33.2,54.5,40.7,13.3,35.5,79.1,67.8,False,current_rolling,https://www.numbeo.com/quality-of-life/rankings_current.jsp,dataset_2_numbeo_current_quality_of_life_rankings; sourced from Numbeo current rolling city rankings page; not automated scraper in project code
286.0,Delhi,,India,Asia,28.7041,77.1025,90.9,78.3,41.0,65.8,21.1,15.8,57.5,90.4,58.9,False,current_rolling,https://www.numbeo.com/quality-of-life/rankings_current.jsp,dataset_2_numbeo_current_quality_of_life_rankings; sourced from Numbeo current rolling city rankings page; not automated scraper in project code
287.0,Bangkok,,Thailand,Asia,13.75,100.5167,90.5,50.5,61.8,77.3,41.4,32.8,44.4,77.7,58.4,False,current_rolling,https://www.numbeo.com/quality-of-life/rankings_current.jsp,dataset_2_numbeo_current_quality_of_life_rankings; sourced from Numbeo current rolling city rankings page; not automated scraper in project code
288.0,Recife,,Brazil,South America,-8.1,-34.8833,90.0,40.7,25.0,64.5,31.9,17.8,46.9,69.9,79.3,False,current_rolling,https://www.numbeo.com/quality-of-life/rankings_current.jsp,dataset_2_numbeo_current_quality_of_life_rankings; sourced from Numbeo current rolling city rankings page; not automated scraper in project code
289.0,Beirut,,Lebanon,Middle East,33.8833,35.5,89.9,36.7,53.3,64.9,52.3,21.7,39.3,93.6,94.7,False,current_rolling,https://www.numbeo.com/quality-of-life/rankings_current.jsp,dataset_2_numbeo_current_quality_of_life_rankings; sourced from Numbeo current rolling city rankings page; not automated scraper in project code
290.0,Alexandria,,Egypt,Africa,31.2167,29.9167,89.6,22.7,54.9,45.4,19.4,22.4,46.3,74.2,95.5,False,current_rolling,https://www.numbeo.com/quality-of-life/rankings_current.jsp,dataset_2_numbeo_current_quality_of_life_rankings; sourced from Numbeo current rolling city rankings page; not automated scraper in project code
291.0,Mumbai,,India,Asia,19.076,72.8777,89.0,70.8,56.1,65.5,24.9,31.8,55.2,83.3,71.5,False,current_rolling,https://www.numbeo.com/quality-of-life/rankings_current.jsp,dataset_2_numbeo_current_quality_of_life_rankings; sourced from Numbeo current rolling city rankings page; not automated scraper in project code
292.0,Hanoi,,Vietnam,Asia,21.0333,105.85,88.1,53.6,66.2,56.9,27.8,39.6,27.7,89.0,79.0,False,current_rolling,https://www.numbeo.com/quality-of-life/rankings_current.jsp,dataset_2_numbeo_current_quality_of_life_rankings; sourced from Numbeo current rolling city rankings page; not automated scraper in project code
293.0,Kathmandu,,Nepal,Asia,27.7172,85.324,85.6,41.6,63.6,55.6,22.7,32.3,35.2,95.7,92.6,False,current_rolling,https://www.numbeo.com/quality-of-life/rankings_current.jsp,dataset_2_numbeo_current_quality_of_life_rankings; sourced from Numbeo current rolling city rankings page; not automated scraper in project code
294.0,Rio de Janeiro,,Brazil,South America,-22.9,-43.2333,82.9,45.2,24.6,46.3,35.8,21.1,51.2,67.7,88.2,False,current_rolling,https://www.numbeo.com/quality-of-life/rankings_current.jsp,dataset_2_numbeo_current_quality_of_life_rankings; sourced from Numbeo current rolling city rankings page; not automated scraper in project code
295.0,Ho Chi Minh City,,Vietnam,Asia,10.75,106.6667,80.0,49.9,50.1,62.9,28.3,31.0,32.1,92.1,63.4,False,current_rolling,https://www.numbeo.com/quality-of-life/rankings_current.jsp,dataset_2_numbeo_current_quality_of_life_rankings; sourced from Numbeo current rolling city rankings page; not automated scraper in project code
296.0,Cairo,,Egypt,Africa,30.05,31.25,78.3,26.7,50.2,46.4,22.3,18.0,49.6,90.6,88.5,False,current_rolling,https://www.numbeo.com/quality-of-life/rankings_current.jsp,dataset_2_numbeo_current_quality_of_life_rankings; sourced from Numbeo current rolling city rankings page; not automated scraper in project code
297.0,Caracas,,Venezuela,South America,10.5,-66.9167,78.0,19.6,18.5,38.7,46.3,18.3,33.2,72.5,99.9,False,current_rolling,https://www.numbeo.com/quality-of-life/rankings_current.jsp,dataset_2_numbeo_current_quality_of_life_rankings; sourced from Numbeo current rolling city rankings page; not automated scraper in project code
298.0,Jakarta,,Indonesia,Asia,-6.1667,106.8167,77.1,46.9,47.3,57.2,27.8,23.5,53.5,84.6,63.8,False,current_rolling,https://www.numbeo.com/quality-of-life/rankings_current.jsp,dataset_2_numbeo_current_quality_of_life_rankings; sourced from Numbeo current rolling city rankings page; not automated scraper in project code
299.0,Karachi,,Pakistan,Asia,24.8667,67.05,76.1,27.5,42.5,57.6,21.2,20.1,42.1,89.6,71.3,False,current_rolling,https://www.numbeo.com/quality-of-life/rankings_current.jsp,dataset_2_numbeo_current_quality_of_life_rankings; sourced from Numbeo current rolling city rankings page; not automated scraper in project code
300.0,Cebu,,Philippines,Asia,10.2833,123.9333,73.5,35.0,51.1,60.7,31.4,33.0,36.0,84.5,60.4,False,current_rolling,https://www.numbeo.com/quality-of-life/rankings_current.jsp,dataset_2_numbeo_current_quality_of_life_rankings; sourced from Numbeo current rolling city rankings page; not automated scraper in project code
301.0,Tehran,,Iran,Middle East,35.6667,51.4333,69.8,26.4,42.8,53.3,22.7,24.9,52.9,80.3,71.0,False,current_rolling,https://www.numbeo.com/quality-of-life/rankings_current.jsp,dataset_2_numbeo_current_quality_of_life_rankings; sourced from Numbeo current rolling city rankings page; not automated scraper in project code
302.0,Colombo,,Sri Lanka,Asia,6.9333,79.85,62.9,22.3,56.9,70.8,33.4,49.5,59.5,59.7,59.1,False,current_rolling,https://www.numbeo.com/quality-of-life/rankings_current.jsp,dataset_2_numbeo_current_quality_of_life_rankings; sourced from Numbeo current rolling city rankings page; not automated scraper in project code
303.0,Dhaka,,Bangladesh,Asia,23.7167,90.4167,61.4,40.4,37.5,40.2,25.4,18.0,60.2,94.0,71.3,False,current_rolling,https://www.numbeo.com/quality-of-life/rankings_current.jsp,dataset_2_numbeo_current_quality_of_life_rankings; sourced from Numbeo current rolling city rankings page; not automated scraper in project code
304.0,Manila,,Philippines,Asia,14.6,120.9833,55.7,40.5,35.4,62.5,33.3,35.2,50.7,89.5,61.2,False,current_rolling,https://www.numbeo.com/quality-of-life/rankings_current.jsp,dataset_2_numbeo_current_quality_of_life_rankings; sourced from Numbeo current rolling city rankings page; not automated scraper in project code
305.0,Lagos,,Nigeria,Africa,6.4333,3.5333,0.0,9.8,31.0,46.8,25.8,102.6,68.3,88.7,60.8,False,current_rolling,https://www.numbeo.com/quality-of-life/rankings_current.jsp,dataset_2_numbeo_current_quality_of_life_rankings; sourced from Numbeo current rolling city rankings page; not automated scraper in project code
